,empty_slots,free_bikes,POI_name,POI_latitude,POI_longitude,category_name,category_id,price,rating,distance,bike_ll,bike_latitude,bike_longitude,reversed_POI_lat
0,15,4,Cueva Colomba,19.43734,-99.137459,Bar,13003.0,2.0,6.1,13.0,"19.4374,-99.137571",19.4374,-99.137571,19.43734
1,15,4,Tintico,19.43721,-99.137425,Coffee Shop,13035.0,1.0,7.6,16.0,"19.4374,-99.137571",19.4374,-99.137571,19.43721
2,15,4,La Cueva Colomba,19.437141,-99.137434,Pub,13018.0,1.0,6.1,18.0,"19.4374,-99.137571",19.4374,-99.137571,19.437141
3,15,4,Tintico Cafe & Galeria,19.43725,-99.137483,Café,13034.0,,,19.0,"19.4374,-99.137571",19.4374,-99.137571,19.43725
4,15,4,Cantina Río de la Plata,19.437195,-99.137617,Beer Bar,13006.0,1.0,6.6,20.0,"19.4374,-99.137571",19.4374,-99.137571,19.437195
5,15,4,"Los Tacos de Fonda Argentina, Centro Histórico",19.437262,-99.137925,BBQ Joint,13026.0,2.0,6.1,23.0,"19.4374,-99.137571",19.4374,-99.137571,19.437262
6,15,4,Salon Beer,19.437126,-99.137626,Bar,13003.0,2.0,,23.0,"19.4374,-99.137571",19.4374,-99.137571,19.437126
7,15,4,El Pecado,19.43721,-99.137425,Dive Bar,13010.0,1.0,5.9,26.0,"19.4374,-99.137571",19.4374,-99.137571,19.43721
8,15,4,Tacos liricos,19.437567,-99.137188,Mexican Restaurant,13303.0,1.0,,30.0,"19.4374,-99.137571",19.4374,-99.137571,19.437567
9,15,4,Manolo,19.437657,-99.137444,Diner,13049.0,1.0,,31.0,"19.4374,-99.137571",19.4374,-99.137571,19.437657
10,15,4,El Pixcuhuil,19.437674,-99.137871,Mexican Restaurant,13303.0,1.0,,31.0,"19.4374,-99.137571",19.4374,-99.137571,19.437674
11,15,4,El Enxebre,19.437262,-99.137925,Restaurant,13065.0,2.0,,32.0,"19.4374,-99.137571",19.4374,-99.137571,19.437262
12,15,4,El Otro Río,19.437155,-99.137242,Dive Bar,13010.0,2.0,6.0,34.0,"19.4374,-99.137571",19.4374,-99.137571,19.437155
13,15,4,Marejada. Tacos de Pesca.,19.437674,-99.137871,Taco Restaurant,13306.0,1.0,8.3,39.0,"19.4374,-99.137571",19.4374,-99.137571,19.437674
14,15,4,Bar la J,19.437125,-99.137943,Bar,13003.0,2.0,,46.0,"19.4374,-99.137571",19.4374,-99.137571,19.437125
15,15,4,HB Mex - Hamburguesas y Burritos,19.43783,-99.137618,Mexican Restaurant,13303.0,1.0,,48.0,"19.4374,-99.137571",19.4374,-99.137571,19.43783
16,15,4,Cantenario de la Plata,19.437126,-99.137626,Bar,13003.0,2.0,,55.0,"19.4374,-99.137571",19.4374,-99.137571,19.437126
17,17,6,Tortas la Españita,19.436439,-99.131445,Sandwich Restaurant,13334.0,1.0,,4.0,"19.436531,-99.131497",19.436531,-99.131497,19.436439
18,17,6,Salon Cantina España 25,19.436617,-99.131485,Bar,13003.0,2.0,7.6,15.0,"19.436531,-99.131497",19.436531,-99.131497,19.436617
19,17,6,Taquería Tlaquepaque,19.436411,-99.131512,Taco Restaurant,13306.0,1.0,,27.0,"19.436531,-99.131497",19.436531,-99.131497,19.436411
20,17,6,Bubble Waffle Co. Centro Histórico,19.436372,-99.131137,Café,13034.0,1.0,,49.0,"19.436531,-99.131497",19.436531,-99.131497,19.436372
21,17,6,Salón España,19.436684,-99.131793,Bar,13003.0,2.0,,203.0,"19.436531,-99.131497",19.436531,-99.131497,19.436684
22,23,12,La Jaliciense centro de la ciudad de mexico area 2,19.436864,-99.13481,Restaurant,13065.0,,,13.0,"19.436741,-99.134811",19.436741,-99.134811,19.436864
23,23,12,Quesadillas y tlacoyos en un zaguán,19.43689,-99.13506,Taco Restaurant,13306.0,1.0,,43.0,"19.436741,-99.134811",19.436741,-99.134811,19.43689
24,16,7,Museo de la Secretaría de Hacienda y Crédito Público,19.433658,-99.131113,Art Museum,10028.0,,7.0,8.0,"19.433766,-99.130918",19.433766,-99.130918,19.433658
25,16,7,El Antojo Comida de Autor,19.433591,-99.130805,Restaurant,13065.0,2.0,,23.0,"19.433766,-99.130918",19.433766,-99.130918,19.433591
26,16,7,Museo Tutankamón - Mexico,19.433934,-99.13076,Museum,10027.0,,,24.0,"19.433766,-99.130918",19.433766,-99.130918,19.433934
27,16,7,Terraza Moneda,19.433605,-99.130613,Lounge,13016.0,3.0,,25.0,"19.433766,-99.130918",19.433766,-99.130918,19.433605
28,14,5,Señor Chicharron,19.430714,-99.13376,Salad Restaurant,13332.0,1.0,,6.0,"19.430722,-99.133698",19.430722,-99.133698,19.430714
29,14,5,Los Chicharrones de 20 Nov,19.430646,-99.133852,Fast Food Restaurant,13145.0,1.0,,14.0,"19.430722,-99.133698",19.430722,-99.133698,19.430646
30,14,5,La Casa del Chicharrón,19.430537,-99.133486,Botanero,13304.0,,,26.0,"19.430722,-99.133698",19.430722,-99.133698,19.430537
31,14,5,Restaurante Sienra's,19.430419,-99.13365,"Cafes, Coffee, and Tea Houses",13032.0,1.0,6.5,34.0,"19.430722,-99.133698",19.430722,-99.133698,19.430419
32,14,5,"Restaurante Palacio, Centro",19.431085,-99.133731,Restaurant,13065.0,2.0,7.9,35.0,"19.430722,-99.133698",19.430722,-99.133698,19.431085
33,14,5,Viajes Palacio,19.431098,-99.133856,Restaurant,13065.0,,,42.0,"19.430722,-99.133698",19.430722,-99.133698,19.431098
34,15,0,La Rinconada,19.429167,-99.13286,Mexican Restaurant,13303.0,1.0,,10.0,"19.429189,-99.132759",19.429189,-99.132759,19.429167
35,15,0,Restaurante Rinconada,19.429045,-99.133175,Mexican Restaurant,13303.0,2.0,,44.0,"19.429189,-99.132759",19.429189,-99.132759,19.429045
36,15,0,Museo de la Ciudad de México,19.429309,-99.132381,Museum,10027.0,1.0,8.7,52.0,"19.429189,-99.132759",19.429189,-99.132759,19.429309
37,22,1,Chang Long,19.428479,-99.134073,Chinese Restaurant,13099.0,1.0,,21.0,"19.428485,-99.1338",19.428485,-99.1338,19.428479
38,22,1,Flor de Iguala,19.428452,-99.13414,Mexican Restaurant,13303.0,1.0,,23.0,"19.428485,-99.1338",19.428485,-99.1338,19.428452
39,22,1,El Buen Sazón,19.428755,-99.13372,Mexican Restaurant,13303.0,1.0,,31.0,"19.428485,-99.1338",19.428485,-99.1338,19.428755
40,22,1,Quesadillas Flor de Iguala,19.428503,-99.134128,Mexican Restaurant,13303.0,1.0,,34.0,"19.428485,-99.1338",19.428485,-99.1338,19.428503
41,22,1,Coffee Max Cafeteria Cibercafe,19.428806,-99.133736,Diner,13049.0,1.0,,36.0,"19.428485,-99.1338",19.428485,-99.1338,19.428806
42,22,1,La Joya Merendero,19.428372,-99.13339,Steakhouse,13383.0,2.0,,55.0,"19.428485,-99.1338",19.428485,-99.1338,19.428372
43,9,2,El Cantón,19.427059,-99.137072,Bar,13003.0,2.0,,4.0,"19.427059,-99.137116",19.427059,-99.137116,19.427059
44,9,2,Céntrico,19.4271,-99.137035,Bar,13003.0,2.0,,9.0,"19.427059,-99.137116",19.427059,-99.137116,19.4271
45,9,2,Hosteria la Bota,19.427179,-99.136904,Tapas Restaurant,13347.0,2.0,8.4,10.0,"19.427059,-99.137116",19.427059,-99.137116,19.427179
46,9,2,El Depósito,19.427233,-99.137087,Bar,13003.0,2.0,7.7,10.0,"19.427059,-99.137116",19.427059,-99.137116,19.427233
47,9,2,Mexica,19.426949,-99.13711,Mexican Restaurant,13303.0,1.0,,12.0,"19.427059,-99.137116",19.427059,-99.137116,19.426949
48,9,2,Chocolatería Mayordomo,19.427466,-99.13731,"Cafes, Coffee, and Tea Houses",13032.0,1.0,8.3,27.0,"19.427059,-99.137116",19.427059,-99.137116,19.427466
49,9,2,Quesadillas Rafita,19.427426,-99.136935,Mexican Restaurant,13303.0,1.0,,30.0,"19.427059,-99.137116",19.427059,-99.137116,19.427426
50,9,2,La Fogatita,19.427398,-99.137002,Mexican Restaurant,13303.0,1.0,5.9,39.0,"19.427059,-99.137116",19.427059,-99.137116,19.427398
51,9,2,tacos el Leon,19.426672,-99.137349,Taco Restaurant,13306.0,1.0,,49.0,"19.427059,-99.137116",19.427059,-99.137116,19.426672
52,8,15,Trattoria di Luu,19.426598,-99.135017,Pizzeria,13064.0,1.0,,6.0,"19.426755,-99.135014",19.426755,-99.135014,19.426598
53,8,15,Pescato's,19.426626,-99.13495,Seafood Restaurant,13338.0,3.0,6.7,8.0,"19.426755,-99.135014",19.426755,-99.135014,19.426626
54,8,15,"Tacos ""el Papi""",19.426626,-99.13495,Mexican Restaurant,13303.0,1.0,6.8,10.0,"19.426755,-99.135014",19.426755,-99.135014,19.426626
55,8,15,Taqueria el Silencioso,19.426939,-99.135288,Taco Restaurant,13306.0,1.0,6.3,18.0,"19.426755,-99.135014",19.426755,-99.135014,19.426939
56,8,15,Pacha,19.426828,-99.135171,Bar,13003.0,2.0,,18.0,"19.426755,-99.135014",19.426755,-99.135014,19.426828
57,8,15,Pulquería la Chulada del Centro,19.427008,-99.135279,Beer Bar,13006.0,2.0,5.6,22.0,"19.426755,-99.135014",19.426755,-99.135014,19.427008
58,8,15,La Chulada Pulques Chelas y Mezcal,19.426885,-99.135207,Bar,13003.0,2.0,,24.0,"19.426755,-99.135014",19.426755,-99.135014,19.426885
59,8,15,Taqueria el Papi,19.42657,-99.135084,Taco Restaurant,13306.0,1.0,,24.0,"19.426755,-99.135014",19.426755,-99.135014,19.42657
60,8,15,De Costa a Costa - Centro,19.426787,-99.134791,Seafood Restaurant,13338.0,3.0,,26.0,"19.426755,-99.135014",19.426755,-99.135014,19.426787
61,8,15,Perú Bar,19.426763,-99.135311,New American Restaurant,13314.0,3.0,,31.0,"19.426755,-99.135014",19.426755,-99.135014,19.426763
62,8,15,El Pechugón Perú Bar,19.427049,-99.135337,Peruvian Restaurant,13322.0,2.0,,32.0,"19.426755,-99.135014",19.426755,-99.135014,19.427049
63,8,15,Cantina Cosmopolita,19.426873,-99.134664,Bar,13003.0,2.0,7.1,34.0,"19.426755,-99.135014",19.426755,-99.135014,19.426873
64,8,15,Terraza Barullo's Bar,19.426953,-99.135413,Beer Garden,13007.0,1.0,5.7,34.0,"19.426755,-99.135014",19.426755,-99.135014,19.426953
65,8,15,Centro Cosmopolita,19.426873,-99.134664,Bar,13003.0,2.0,,35.0,"19.426755,-99.135014",19.426755,-99.135014,19.426873
66,8,15,"Tortas ""Shiro's""",19.427009,-99.134963,American Restaurant,13068.0,,,36.0,"19.426755,-99.135014",19.426755,-99.135014,19.427009
67,8,15,La Mezcalita,19.426912,-99.135355,Bar,13003.0,2.0,6.0,38.0,"19.426755,-99.135014",19.426755,-99.135014,19.426912
68,8,15,Pollos a la Brasa el Pechugón,19.427008,-99.135279,Peruvian Restaurant,13322.0,2.0,,39.0,"19.426755,-99.135014",19.426755,-99.135014,19.427008
69,8,15,Ensaladas Vero,19.426599,-99.1347,Sandwich Restaurant,13334.0,1.0,7.3,43.0,"19.426755,-99.135014",19.426755,-99.135014,19.426599
70,8,15,Peggy Sues,19.427009,-99.134963,Burger Joint,13031.0,1.0,7.1,46.0,"19.426755,-99.135014",19.426755,-99.135014,19.427009
71,19,4,El Jalisquillo,19.427415,-99.149537,Taco Restaurant,13306.0,1.0,,12.0,"19.427305,-99.149533",19.427305,-99.149533,19.427415
72,19,4,Comedor Secretaria de Gobernacion,19.427209,-99.149695,Diner,13049.0,1.0,,14.0,"19.427305,-99.149533",19.427305,-99.149533,19.427209
73,19,4,Sushi Movil,19.427223,-99.149503,Japanese Restaurant,13263.0,2.0,6.2,33.0,"19.427305,-99.149533",19.427305,-99.149533,19.427223
74,19,4,Las Banderillas del Mini,19.427366,-99.14992,Fast Food Restaurant,13145.0,1.0,,41.0,"19.427305,-99.149533",19.427305,-99.149533,19.427366
75,19,4,Tacos de Guisado Balderas,19.427427,-99.149159,Taco Restaurant,13306.0,1.0,,41.0,"19.427305,-99.149533",19.427305,-99.149533,19.427427
76,19,4,Kangreburguers,19.427729,-99.149661,Burger Joint,13031.0,1.0,,49.0,"19.427305,-99.149533",19.427305,-99.149533,19.427729
77,12,19,Sushi San,19.425451,-99.137321,Japanese Restaurant,13263.0,2.0,6.9,13.0,"19.425311,-99.137421",19.425311,-99.137421,19.425451
78,12,19,Tacos Soco,19.425518,-99.137628,Taco Restaurant,13306.0,1.0,,18.0,"19.425311,-99.137421",19.425311,-99.137421,19.425518
79,12,19,Donde Isabel,19.425588,-99.137303,Mexican Restaurant,13303.0,1.0,7.0,25.0,"19.425311,-99.137421",19.425311,-99.137421,19.425588
80,12,19,Taquitos el Güero,19.425587,-99.137619,Taco Restaurant,13306.0,1.0,,27.0,"19.425311,-99.137421",19.425311,-99.137421,19.425587
81,12,19,El Rey de las Tortas,19.425518,-99.137628,Sandwich Restaurant,13334.0,1.0,,30.0,"19.425311,-99.137421",19.425311,-99.137421,19.425518
82,12,19,La Casa del Habanero,19.425724,-99.137601,Restaurant,13065.0,2.0,,33.0,"19.425311,-99.137421",19.425311,-99.137421,19.425724
83,12,19,Tacos Árabes Artabán,19.425295,-99.137753,Middle Eastern Restaurant,13309.0,2.0,,34.0,"19.425311,-99.137421",19.425311,-99.137421,19.425295
84,12,19,Salon Familiar la Mascota,19.425657,-99.137294,Bar,13003.0,2.0,,49.0,"19.425311,-99.137421",19.425311,-99.137421,19.425657
85,12,19,San Wichon,19.425725,-99.137285,Sandwich Restaurant,13334.0,1.0,,55.0,"19.425311,-99.137421",19.425311,-99.137421,19.425725
86,12,19,Arrachera's Grill,19.42541,-99.137263,American Restaurant,13068.0,4.0,7.5,152.0,"19.425311,-99.137421",19.425311,-99.137421,19.42541
87,4,19,La Cima,19.432791,-99.151747,Bar,13003.0,2.0,,3.0,"19.432819,-99.151734",19.432819,-99.151734,19.432791
88,4,19,Viento en Popa,19.432556,-99.151432,Seafood Restaurant,13338.0,3.0,,43.0,"19.432819,-99.151734",19.432819,-99.151734,19.432556
89,14,1,Soy Capitán Pescadería,19.43041,-99.15444,Seafood Restaurant,13338.0,3.0,,5.0,"19.430369,-99.154419",19.430369,-99.154419,19.43041
90,14,1,Colmillo,19.430628,-99.154758,Cocktail Bar,13009.0,3.0,,46.0,"19.430369,-99.154419",19.430369,-99.154419,19.430628
91,14,1,Buscando que comer XD,19.430176,-99.15482,Afghan Restaurant,13066.0,2.0,,47.0,"19.430369,-99.154419",19.430369,-99.154419,19.430176
92,14,1,El Colmillo Affter,19.430025,-99.154647,Speakeasy,13021.0,3.0,,55.0,"19.430369,-99.154419",19.430369,-99.154419,19.430025
93,14,9,Circulo del Sureste,19.428783,-99.153416,Mexican Restaurant,13303.0,1.0,7.9,36.0,"19.428989,-99.153618",19.428989,-99.153618,19.428783
94,14,9,Centro Yucateco Internacional,19.428811,-99.153349,Mexican Restaurant,13303.0,1.0,,38.0,"19.428989,-99.153618",19.428989,-99.153618,19.428811
95,21,6,McDonald's,19.429744,-99.159561,Burger Joint,13031.0,1.0,6.4,24.0,"19.429947,-99.159698",19.429947,-99.159698,19.429744
96,21,6,La Cobacha,19.429725,-99.15964,Bar,13003.0,2.0,,25.0,"19.429947,-99.159698",19.429947,-99.159698,19.429725
97,21,6,La Nueva Argentina,19.429686,-99.159364,Steakhouse,13383.0,4.0,,45.0,"19.429947,-99.159698",19.429947,-99.159698,19.429686
98,17,6,Tacos de Mixiote Castelán,19.428838,-99.156576,Mexican Restaurant,13303.0,1.0,8.2,11.0,"19.428985,-99.15664",19.428985,-99.15664,19.428838
99,17,6,Hop The Beer Experience,19.428838,-99.156576,Arts and Entertainment,10000.0,1.0,8.4,15.0,"19.428985,-99.15664",19.428985,-99.15664,19.428838
100,17,6,Hop The Beer Experience,19.428934,-99.1565,Bar,13003.0,,,15.0,"19.428985,-99.15664",19.428985,-99.15664,19.428934
101,17,6,La Marisqueria,19.428922,-99.156499,Seafood Restaurant,13338.0,3.0,,16.0,"19.428985,-99.15664",19.428985,-99.15664,19.428922
102,17,6,Los de Mexiote,19.428742,-99.156652,Taco Restaurant,13306.0,1.0,,17.0,"19.428985,-99.15664",19.428985,-99.15664,19.428742
103,17,6,Tlacoyos Londres,19.428838,-99.156576,Mexican Restaurant,13303.0,1.0,,19.0,"19.428985,-99.15664",19.428985,-99.15664,19.428838
104,17,6,Quesadillas del Sumesa,19.428838,-99.156576,Mexican Restaurant,13303.0,1.0,,19.0,"19.428985,-99.15664",19.428985,-99.15664,19.428838
105,17,6,Museo de Lo Increíble,19.428783,-99.15671,Museum,10027.0,,,23.0,"19.428985,-99.15664",19.428985,-99.15664,19.428783
106,17,6,La Casona Restaurante,19.429042,-99.156866,Restaurant,13065.0,,6.7,29.0,"19.428985,-99.15664",19.428985,-99.15664,19.429042
107,17,6,Barbacoa Esqina Roma y Lisboa,19.429223,-99.156272,Mexican Restaurant,13303.0,1.0,,44.0,"19.428985,-99.15664",19.428985,-99.15664,19.429223
108,17,6,Museo Ripley,19.428618,-99.156795,Art Museum,10028.0,,7.1,45.0,"19.428985,-99.15664",19.428985,-99.15664,19.428618
109,17,6,La Pizzarra,19.428729,-99.156527,Pizzeria,13064.0,1.0,7.6,55.0,"19.428985,-99.15664",19.428985,-99.15664,19.428729
110,4,15,Tacos la Sombrilla,19.427094,-99.158164,Taco Restaurant,13306.0,1.0,,9.0,"19.427114,-99.158251",19.427114,-99.158251,19.427094
111,4,15,Paracaidista Taproom - Juarez,19.427158,-99.158096,Brewery,13029.0,2.0,6.6,16.0,"19.427114,-99.158251",19.427114,-99.158251,19.427158
112,4,15,Antojitos mexicanos Don Pery,19.426735,-99.158055,Mexican Restaurant,13303.0,1.0,,36.0,"19.427114,-99.158251",19.427114,-99.158251,19.426735
113,4,15,Tacos los Paisanos,19.426747,-99.158497,Taco Restaurant,13306.0,1.0,,36.0,"19.427114,-99.158251",19.427114,-99.158251,19.426747
114,4,15,Tamales Madre,19.427109,-99.157883,Mexican Restaurant,13303.0,1.0,8.2,38.0,"19.427114,-99.158251",19.427114,-99.158251,19.427109
115,9,6,Toñocop's Aparment,19.425276,-99.159386,Speakeasy,13021.0,3.0,,7.0,"19.425437,-99.159458",19.425437,-99.159458,19.425276
116,9,6,Pizza Miah,19.425276,-99.159386,Pizzeria,13064.0,1.0,,8.0,"19.425437,-99.159458",19.425437,-99.159458,19.425276
117,9,6,El 123 Mini,19.425304,-99.159319,Café,13034.0,1.0,8.2,11.0,"19.425437,-99.159458",19.425437,-99.159458,19.425304
118,9,6,Burrushi,19.425304,-99.159319,Asian Restaurant,13072.0,2.0,,18.0,"19.425437,-99.159458",19.425437,-99.159458,19.425304
119,9,6,BLOM Café,19.425221,-99.15952,Coffee Shop,13035.0,1.0,8.9,20.0,"19.425437,-99.159458",19.425437,-99.159458,19.425221
120,9,6,Barbacoa Capulhuac,19.425276,-99.159386,Taco Restaurant,13306.0,1.0,,20.0,"19.425437,-99.159458",19.425437,-99.159458,19.425276
121,9,6,Los Molcajetes,19.425304,-99.159319,Mexican Restaurant,13303.0,1.0,5.8,25.0,"19.425437,-99.159458",19.425437,-99.159458,19.425304
122,9,6,Mauricio's fonda,19.425675,-99.159207,Comfort Food Restaurant,13134.0,,,26.0,"19.425437,-99.159458",19.425437,-99.159458,19.425675
123,9,6,Restaurante Napoles,19.425058,-99.159288,Mexican Restaurant,13303.0,1.0,5.6,31.0,"19.425437,-99.159458",19.425437,-99.159458,19.425058
124,9,6,Del Rio Valdivia Maria Soledad,19.425497,-99.159167,Restaurant,13065.0,,,31.0,"19.425437,-99.159458",19.425437,-99.159458,19.425497
125,9,6,Tacos Don Manolito,19.425193,-99.159587,Taco Restaurant,13306.0,1.0,6.4,32.0,"19.425437,-99.159458",19.425437,-99.159458,19.425193
126,9,6,El Dorado,19.425534,-99.159133,Sandwich Restaurant,13334.0,1.0,,35.0,"19.425437,-99.159458",19.425437,-99.159458,19.425534
127,9,6,Buffet chino Lu Shan,19.425702,-99.15914,Asian Restaurant,13072.0,2.0,,38.0,"19.425437,-99.159458",19.425437,-99.159458,19.425702
128,2,13,Brujas House,19.423844,-99.160967,Wine Bar,13025.0,2.0,,33.0,"19.424137,-99.161317",19.424137,-99.161317,19.423844
129,19,12,Antojitos el Rinconcito,19.425522,-99.146559,Mexican Restaurant,13303.0,1.0,,15.0,"19.425502,-99.146337",19.425502,-99.146337,19.425522
130,19,12,Las Arracheras,19.425675,-99.146032,Beer Garden,13007.0,2.0,,28.0,"19.425502,-99.146337",19.425502,-99.146337,19.425675
131,13,14,Birrieria el Rancho,19.424467,-99.153031,Mexican Restaurant,13303.0,1.0,7.4,8.0,"19.424161,-99.153117",19.424161,-99.153117,19.424467
132,13,14,Restaurante Paco's,19.424331,-99.152732,Restaurant,13065.0,2.0,7.1,12.0,"19.424161,-99.153117",19.424161,-99.153117,19.424331
133,13,14,Cerveceria,19.424262,-99.15305,Bar,13003.0,2.0,,13.0,"19.424161,-99.153117",19.424161,-99.153117,19.424262
134,13,14,La Imperial,19.424115,-99.15298,Bar,13003.0,2.0,8.1,15.0,"19.424161,-99.153117",19.424161,-99.153117,19.424115
135,13,14,Bar Sambuca Cuauhtémoc,19.42414,-99.153325,Bar,13003.0,2.0,5.8,21.0,"19.424161,-99.153117",19.424161,-99.153117,19.42414
136,13,14,Tacos de birria el Pariente,19.423863,-99.153237,Taco Restaurant,13306.0,1.0,,25.0,"19.424161,-99.153117",19.424161,-99.153117,19.423863
137,13,14,Taquitos el Pariente,19.424466,-99.153348,Mexican Restaurant,13303.0,1.0,,32.0,"19.424161,-99.153117",19.424161,-99.153117,19.424466
138,13,14,Birria los Parientes,19.423863,-99.153237,Mexican Restaurant,13303.0,1.0,,37.0,"19.424161,-99.153117",19.424161,-99.153117,19.423863
139,13,14,Alma de Quetzal,19.423893,-99.152889,Yucatecan Restaurant,13308.0,,7.2,38.0,"19.424161,-99.153117",19.424161,-99.153117,19.423893
140,13,14,Santas Alitas,19.424411,-99.153482,Wings Joint,13388.0,1.0,,43.0,"19.424161,-99.153117",19.424161,-99.153117,19.424411
141,13,14,Las Jirafas,19.423741,-99.153283,Bar,13003.0,2.0,,49.0,"19.424161,-99.153117",19.424161,-99.153117,19.423741
142,13,14,Tacos al Carbon Doña Santa,19.424109,-99.153585,Taco Restaurant,13306.0,1.0,,65.0,"19.424161,-99.153117",19.424161,-99.153117,19.424109
143,30,4,Caldos Bens,19.422332,-99.162116,Restaurant,13065.0,,,5.0,"19.422288,-99.162138",19.422288,-99.162138,19.422332
144,30,4,Casa Lorenzo,19.422647,-99.162138,Mexican Restaurant,13303.0,1.0,,21.0,"19.422288,-99.162138",19.422288,-99.162138,19.422647
145,30,4,Daddy's Burgers & Salads,19.422374,-99.161857,Burger Joint,13031.0,1.0,7.7,30.0,"19.422288,-99.162138",19.422288,-99.162138,19.422374
146,30,4,Las Gorditas de Puebla,19.422402,-99.16179,Mexican Restaurant,13303.0,1.0,,39.0,"19.422288,-99.162138",19.422288,-99.162138,19.422402
147,23,4,Tortas y Tacos,19.423045,-99.158665,Taco Restaurant,13306.0,1.0,,32.0,"19.423318,-99.15833",19.423318,-99.15833,19.423045
148,23,4,Tacos de Isra,19.42347,-99.158736,Taco Restaurant,13306.0,1.0,,33.0,"19.423318,-99.15833",19.423318,-99.15833,19.42347
149,23,4,Martínez,19.423174,-99.158634,Wine Bar,13025.0,2.0,,35.0,"19.423318,-99.15833",19.423318,-99.15833,19.423174
150,23,4,hochos Patrick,19.423045,-99.158665,Burger Joint,13031.0,1.0,,35.0,"19.423318,-99.15833",19.423318,-99.15833,19.423045
151,23,4,Deseo Café de Especialidad,19.423075,-99.158281,Café,13034.0,1.0,8.5,37.0,"19.423318,-99.15833",19.423318,-99.15833,19.423075
152,23,4,Tops,19.423361,-99.158687,Restaurant,13065.0,,,37.0,"19.423318,-99.15833",19.423318,-99.15833,19.423361
153,23,4,Bennigan's,19.422965,-99.158232,Restaurant,13065.0,,,40.0,"19.423318,-99.15833",19.423318,-99.15833,19.422965
154,23,4,El Flako,19.422946,-99.158485,Taco Restaurant,13306.0,1.0,,44.0,"19.423318,-99.15833",19.423318,-99.15833,19.422946
155,23,4,Tortas Roma,19.422907,-99.158476,Mexican Restaurant,13303.0,1.0,,48.0,"19.423318,-99.15833",19.423318,-99.15833,19.422907
156,23,4,Quesadillas Doña Mary,19.422952,-99.158107,Mexican Restaurant,13303.0,1.0,,58.0,"19.423318,-99.15833",19.423318,-99.15833,19.422952
157,10,13,Hungry Beast Juice Bar & Kitchen,19.422172,-99.160933,Restaurant,13065.0,1.0,6.7,15.0,"19.422148,-99.160645",19.422148,-99.160645,19.422172
158,10,13,Bottega Sartoria,19.4222,-99.160866,Deli,13039.0,1.0,8.4,16.0,"19.422148,-99.160645",19.422148,-99.160645,19.4222
159,10,13,Pizzera Della Maddonna,19.422188,-99.160819,Pizzeria,13064.0,1.0,,18.0,"19.422148,-99.160645",19.422148,-99.160645,19.422188
160,10,13,Cucina,19.422052,-99.16083,Restaurant,13065.0,2.0,,22.0,"19.422148,-99.160645",19.422148,-99.160645,19.422052
161,10,13,Buna,19.421955,-99.160518,Café,13034.0,,,25.0,"19.422148,-99.160645",19.422148,-99.160645,19.421955
162,10,13,Madonna,19.422083,-99.160909,Italian Restaurant,13236.0,2.0,,28.0,"19.422148,-99.160645",19.422148,-99.160645,19.422083
163,10,13,Sartoria,19.421845,-99.160469,Italian Restaurant,13236.0,2.0,8.0,33.0,"19.422148,-99.160645",19.422148,-99.160645,19.421845
164,10,13,Museo PADRE PRO,19.422445,-99.160866,History Museum,10030.0,,,40.0,"19.422148,-99.160645",19.422148,-99.160645,19.422445
165,10,13,Café Toscano,19.421845,-99.160469,Café,13034.0,2.0,7.7,61.0,"19.422148,-99.160645",19.422148,-99.160645,19.421845
166,8,11,Restaurante Oxacobeo,19.419513,-99.161091,Spanish Restaurant,13345.0,,,24.0,"19.419579,-99.161314",19.419579,-99.161314,19.419513
167,8,11,Las Pelonchas,19.419787,-99.161055,Burger Joint,13031.0,1.0,,26.0,"19.419579,-99.161314",19.419579,-99.161314,19.419787
168,8,11,Papas Guapas,19.419716,-99.161698,Restaurant,13065.0,2.0,,30.0,"19.419579,-99.161314",19.419579,-99.161314,19.419716
169,8,11,Game Over PartyParty,19.419389,-99.161234,Bar,13003.0,2.0,,37.0,"19.419579,-99.161314",19.419579,-99.161314,19.419389
170,8,11,O'xacobeo,19.419527,-99.160899,Spanish Restaurant,13345.0,2.0,7.7,39.0,"19.419579,-99.161314",19.419579,-99.161314,19.419527
171,8,11,Restaurante Centro Gallego,19.4195,-99.160966,Spanish Restaurant,13345.0,2.0,7.3,48.0,"19.419579,-99.161314",19.419579,-99.161314,19.4195
172,14,9,Modena Pizza Napolitana,19.420834,-99.156484,Pizzeria,13064.0,1.0,,15.0,"19.420667,-99.15645",19.420667,-99.15645,19.420834
173,14,9,The Food Box,19.420831,-99.156399,Burger Joint,13031.0,1.0,7.4,18.0,"19.420667,-99.15645",19.420667,-99.15645,19.420831
174,14,9,Comal de Piedra,19.420903,-99.156475,Mexican Restaurant,13303.0,1.0,7.2,19.0,"19.420667,-99.15645",19.420667,-99.15645,19.420903
175,14,9,La Ensalada Loka,19.420957,-99.156658,Salad Restaurant,13332.0,1.0,,28.0,"19.420667,-99.15645",19.420667,-99.15645,19.420957
176,14,9,Penya Blaugrana Ciutat de Mèxic,19.420973,-99.15615,Lounge,13016.0,3.0,,30.0,"19.420667,-99.15645",19.420667,-99.15645,19.420973
177,14,9,Salón Paseo de Gracia,19.420973,-99.15615,Restaurant,13065.0,2.0,7.7,31.0,"19.420667,-99.15645",19.420667,-99.15645,19.420973
178,14,9,Sr. Taco,19.420492,-99.156529,Mexican Restaurant,13303.0,1.0,,32.0,"19.420667,-99.15645",19.420667,-99.15645,19.420492
179,14,9,Frito y Cruel,19.420464,-99.156596,Fried Chicken Joint,13055.0,1.0,6.7,33.0,"19.420667,-99.15645",19.420667,-99.15645,19.420464
180,14,9,Nitrology,19.42048,-99.156087,Ice Cream Parlor,13046.0,1.0,7.1,39.0,"19.420667,-99.15645",19.420667,-99.15645,19.42048
181,14,9,El Cuartito,19.420626,-99.156058,Speakeasy,13021.0,3.0,,41.0,"19.420667,-99.15645",19.420667,-99.15645,19.420626
182,14,9,Distro Bistrot,19.420494,-99.156086,Bistro,13027.0,,,44.0,"19.420667,-99.15645",19.420667,-99.15645,19.420494
183,14,9,Eva Sandwichería,19.420296,-99.156249,Sandwich Restaurant,13334.0,1.0,,46.0,"19.420667,-99.15645",19.420667,-99.15645,19.420296
184,25,10,Ricas Quesadillas Hnos. Hernandez,19.421112,-99.15471,Mexican Restaurant,13303.0,1.0,,3.0,"19.421138,-99.154725",19.421138,-99.154725,19.421112
185,25,10,Barbacoa de Calpulhuac,19.421239,-99.154721,Mexican Restaurant,13303.0,1.0,,11.0,"19.421138,-99.154725",19.421138,-99.154725,19.421239
186,25,10,Cemitas del tienguis,19.421363,-99.154578,Mexican Restaurant,13303.0,1.0,,15.0,"19.421138,-99.154725",19.421138,-99.154725,19.421363
187,25,10,Tacos y Mixiotes Garrido,19.421266,-99.154971,Taco Restaurant,13306.0,1.0,,19.0,"19.421138,-99.154725",19.421138,-99.154725,19.421266
188,25,10,Garnacha Tianguis Alvaro Obregon,19.421225,-99.154913,Mexican Restaurant,13303.0,1.0,,19.0,"19.421138,-99.154725",19.421138,-99.154725,19.421225
189,25,10,La Más Poblana,19.421322,-99.15452,Mexican Restaurant,13303.0,1.0,,26.0,"19.421138,-99.154725",19.421138,-99.154725,19.421322
190,25,10,Fideogordo,19.4213,-99.15441,Asian Restaurant,13072.0,2.0,,37.0,"19.421138,-99.154725",19.421138,-99.154725,19.4213
191,25,10,"Pancita, pozole y enchiladas yola",19.421114,-99.155181,Mexican Restaurant,13303.0,1.0,,42.0,"19.421138,-99.154725",19.421138,-99.154725,19.421114
192,25,10,Pizza Pepino,19.421114,-99.155181,Pizzeria,13064.0,,,47.0,"19.421138,-99.154725",19.421138,-99.154725,19.421114
193,25,10,Barrio Fino,19.421378,-99.154386,Bar,13003.0,2.0,,51.0,"19.421138,-99.154725",19.421138,-99.154725,19.421378
194,25,10,Quesadillas de Colima,19.421114,-99.155181,Mexican Restaurant,13303.0,1.0,6.4,61.0,"19.421138,-99.154725",19.421138,-99.154725,19.421114
195,25,10,Pizza Peppino,19.421114,-99.155181,Pizzeria,13064.0,2.0,8.1,66.0,"19.421138,-99.154725",19.421138,-99.154725,19.421114
196,7,12,Bandido de Parral,19.418026,-99.159513,Seafood Restaurant,13338.0,3.0,7.9,20.0,"19.418304,-99.15956",19.418304,-99.15956,19.418026
197,7,12,Primos,19.418026,-99.159513,Mexican Restaurant,13303.0,1.0,6.0,20.0,"19.418304,-99.15956",19.418304,-99.15956,19.418026
198,7,12,Marcello,19.418108,-99.159548,Italian Restaurant,13236.0,2.0,,21.0,"19.418304,-99.15956",19.418304,-99.15956,19.418108
199,7,12,El 10,19.418094,-99.159504,Restaurant,13065.0,,,24.0,"19.418304,-99.15956",19.418304,-99.15956,19.418094
200,7,12,"Burger Bar Joint, Roma",19.418136,-99.159245,Burger Joint,13031.0,3.0,7.7,26.0,"19.418304,-99.15956",19.418304,-99.15956,19.418136
201,7,12,El 10 Comida Argentina,19.418026,-99.159513,Argentinian Restaurant,13070.0,,,31.0,"19.418304,-99.15956",19.418304,-99.15956,19.418026
202,7,12,Freims,19.418026,-99.159513,Restaurant,13065.0,,,31.0,"19.418304,-99.15956",19.418304,-99.15956,19.418026
203,7,12,Cervecería Mamona,19.41816,-99.159258,Seafood Restaurant,13338.0,3.0,,35.0,"19.418304,-99.15956",19.418304,-99.15956,19.41816
204,7,12,Casa Lamm,19.418615,-99.159499,Diner,13049.0,,,35.0,"19.418304,-99.15956",19.418304,-99.15956,19.418615
205,7,12,Nueve Nueve Bistro Mexicano,19.418615,-99.159499,Restaurant,13065.0,,,35.0,"19.418304,-99.15956",19.418304,-99.15956,19.418615
206,7,12,La Cervecería de Barrio,19.418136,-99.159245,Brewery,13029.0,2.0,7.0,39.0,"19.418304,-99.15956",19.418304,-99.15956,19.418136
207,7,12,Tetela,19.418158,-99.159251,Restaurant,13065.0,2.0,,40.0,"19.418304,-99.15956",19.418304,-99.15956,19.418158
208,7,12,Licorería Limantour,19.418094,-99.159504,Cocktail Bar,13009.0,3.0,8.7,41.0,"19.418304,-99.15956",19.418304,-99.15956,19.418094
209,7,12,Alfredos,19.418024,-99.15983,Restaurant,13065.0,,,42.0,"19.418304,-99.15956",19.418304,-99.15956,19.418024
210,7,12,Scimia,19.418334,-99.159148,Pizzeria,13064.0,1.0,,43.0,"19.418304,-99.15956",19.418304,-99.15956,19.418334
211,7,12,"El Diez, Parrilla Argentina",19.418094,-99.159962,Argentinian Restaurant,13070.0,2.0,,48.0,"19.418304,-99.15956",19.418304,-99.15956,19.418094
212,7,12,"El 10, Roma",19.417956,-99.159839,Argentinian Restaurant,13070.0,,,48.0,"19.418304,-99.15956",19.418304,-99.15956,19.417956
213,7,12,Bistro Mexicano 99,19.418615,-99.159499,Mexican Restaurant,13303.0,3.0,7.6,51.0,"19.418304,-99.15956",19.418304,-99.15956,19.418615
214,7,12,Cevicheria MAMONA,19.418078,-99.159171,Seafood Restaurant,13338.0,3.0,,53.0,"19.418304,-99.15956",19.418304,-99.15956,19.418078
215,7,12,NueveNueve,19.418697,-99.159615,American Restaurant,13068.0,3.0,8.0,610.0,"19.418304,-99.15956",19.418304,-99.15956,19.418697
216,19,4,The Sano,19.419414,-99.155214,Vegan and Vegetarian Restaurant,13377.0,2.0,7.6,12.0,"19.419225,-99.155099",19.419225,-99.155099,19.419414
217,19,4,Tortas y Tacos la Roma,19.419483,-99.155205,Comfort Food Restaurant,13134.0,,,21.0,"19.419225,-99.155099",19.419225,-99.155099,19.419483
218,19,4,Restaurante Maíz y Olivo,19.419414,-99.155214,Mediterranean Restaurant,13302.0,2.0,5.8,27.0,"19.419225,-99.155099",19.419225,-99.155099,19.419414
219,19,4,Matadoras Tortas de Chilakill,19.419097,-99.155469,Comfort Food Restaurant,13134.0,,,41.0,"19.419225,-99.155099",19.419225,-99.155099,19.419097
220,19,4,El Deposito,19.419372,-99.155472,Bar,13003.0,,,42.0,"19.419225,-99.155099",19.419225,-99.155099,19.419372
221,19,4,Wings Alvaro Obregon,19.419372,-99.155472,Restaurant,13065.0,,,42.0,"19.419225,-99.155099",19.419225,-99.155099,19.419372
222,19,4,El Campirano - Roma Norte,19.419372,-99.155472,Bar,13003.0,,,42.0,"19.419225,-99.155099",19.419225,-99.155099,19.419372
223,19,4,El Deposito - Roma Norte,19.419372,-99.155472,Pub,13018.0,1.0,7.6,43.0,"19.419225,-99.155099",19.419225,-99.155099,19.419372
224,19,4,El Levanton,19.419004,-99.154951,Seafood Restaurant,13338.0,3.0,,44.0,"19.419225,-99.155099",19.419225,-99.155099,19.419004
225,19,4,El Campirano Álvaro Obregón,19.419238,-99.155564,Buffet,13030.0,,6.3,48.0,"19.419225,-99.155099",19.419225,-99.155099,19.419238
226,9,10,El Califa,19.417382,-99.162637,Taco Restaurant,13306.0,1.0,7.4,23.0,"19.417715,-99.162729",19.417715,-99.162729,19.417382
227,9,10,El Sibarita,19.417663,-99.162945,Spanish Restaurant,13345.0,2.0,,23.0,"19.417715,-99.162729",19.417715,-99.162729,19.417663
228,9,10,Mexa Cocina del Alma,19.417513,-99.162865,Mexican Restaurant,13303.0,1.0,,26.0,"19.417715,-99.162729",19.417715,-99.162729,19.417513
229,9,10,Tacos Orinoco,19.417872,-99.163014,Taco Restaurant,13306.0,1.0,9.0,34.0,"19.417715,-99.162729",19.417715,-99.162729,19.417872
230,9,10,El Barandal,19.417354,-99.162704,Restaurant,13065.0,,,40.0,"19.417715,-99.162729",19.417715,-99.162729,19.417354
231,9,10,Finca Santa Veracruz,19.418054,-99.162423,Café,13034.0,1.0,7.0,61.0,"19.417715,-99.162729",19.417715,-99.162729,19.418054
232,18,9,Moonwalk,19.418585,-99.156906,Bar,13003.0,2.0,,18.0,"19.418774,-99.157081",19.418774,-99.157081,19.418585
233,18,9,Bon Appetit!,19.418516,-99.156915,Restaurant,13065.0,2.0,,24.0,"19.418774,-99.157081",19.418774,-99.157081,19.418516
234,18,9,Sebo,19.418476,-99.156857,Karaoke Bar,13015.0,2.0,,25.0,"19.418774,-99.157081",19.418774,-99.157081,19.418476
235,18,9,Los Bisquets Bisquets Obregón,19.418501,-99.157424,Taco Restaurant,13306.0,2.0,7.8,26.0,"19.418774,-99.157081",19.418774,-99.157081,19.418501
236,18,9,Taquitos Frontera,19.41886,-99.157384,Taco Restaurant,13306.0,1.0,6.6,33.0,"19.418774,-99.157081",19.418774,-99.157081,19.41886
237,18,9,Garash,19.419091,-99.157093,Museum,10027.0,,,35.0,"19.418774,-99.157081",19.418774,-99.157081,19.419091
238,18,9,Azotea Acapulco,19.41916,-99.157084,Restaurant,13065.0,2.0,5.2,37.0,"19.418774,-99.157081",19.418774,-99.157081,19.41916
239,18,9,Taqueria los Pepe's,19.418481,-99.157297,Taco Restaurant,13306.0,1.0,,39.0,"19.418774,-99.157081",19.418774,-99.157081,19.418481
240,18,9,La Mata Dietas,19.419065,-99.156773,Taco Restaurant,13306.0,1.0,,45.0,"19.418774,-99.157081",19.418774,-99.157081,19.419065
241,18,9,"Los Bisquets Obregon, Alvaro Obregon",19.418501,-99.157424,Coffee Shop,13035.0,,,47.0,"19.418774,-99.157081",19.418774,-99.157081,19.418501
242,18,9,Cafe Restaurante la Perla del Este,19.418501,-99.157424,Coffee Shop,13035.0,,,47.0,"19.418774,-99.157081",19.418774,-99.157081,19.418501
243,8,15,Toto & Mole,19.416057,-99.162133,Mexican Restaurant,13303.0,1.0,,8.0,"19.416128,-99.162097",19.416128,-99.162097,19.416057
244,8,15,Don Don Tamale,19.416137,-99.16204,Mexican Restaurant,13303.0,1.0,,10.0,"19.416128,-99.162097",19.416128,-99.162097,19.416137
245,8,15,Chatita Chula,19.416018,-99.162103,Restaurant,13065.0,2.0,,12.0,"19.416128,-99.162097",19.416128,-99.162097,19.416018
246,8,15,Cafe de Tonala,19.41574,-99.161902,Mexican Restaurant,13303.0,1.0,,34.0,"19.416128,-99.162097",19.416128,-99.162097,19.41574
247,8,15,Vx Cafe,19.415889,-99.162326,Coffee Shop,13035.0,,,35.0,"19.416128,-99.162097",19.416128,-99.162097,19.415889
248,8,15,Las Flautas,19.415781,-99.16196,Taco Restaurant,13306.0,1.0,5.6,36.0,"19.416128,-99.162097",19.416128,-99.162097,19.415781
249,5,26,El Huerto UC,19.415655,-99.159443,Molecular Gastronomy Restaurant,13311.0,4.0,,20.0,"19.415905,-99.15954",19.415905,-99.15954,19.415655
250,5,26,La Arrogante,19.415751,-99.159367,Bar,13003.0,,,24.0,"19.415905,-99.15954",19.415905,-99.15954,19.415751
251,5,26,"Jochos, Hamburguesas y Sincronizadas Callejeras",19.415723,-99.159379,American Restaurant,13068.0,2.0,,26.0,"19.415905,-99.15954",19.415905,-99.15954,19.415723
252,5,26,Vagabundo,19.415654,-99.15976,Mexican Restaurant,13303.0,1.0,,26.0,"19.415905,-99.15954",19.415905,-99.15954,19.415654
253,5,26,Hamburguesas el Chino,19.415779,-99.1593,Burger Joint,13031.0,1.0,,29.0,"19.415905,-99.15954",19.415905,-99.15954,19.415779
254,5,26,La China,19.416063,-99.159245,Taco Restaurant,13306.0,1.0,,35.0,"19.415905,-99.15954",19.415905,-99.15954,19.416063
255,5,26,Restaurante Italiano Amore,19.416052,-99.159581,Italian Restaurant,13236.0,2.0,,38.0,"19.415905,-99.15954",19.415905,-99.15954,19.416052
256,5,26,Café Toscano,19.415913,-99.159916,Restaurant,13065.0,,,39.0,"19.415905,-99.15954",19.415905,-99.15954,19.415913
257,10,13,"Tortería ""Los Güeros""",19.414319,-99.157655,Fast Food Restaurant,13145.0,1.0,8.2,22.0,"19.414303,-99.157542",19.414303,-99.157542,19.414319
258,10,13,Pizza Classica,19.414389,-99.157329,Bar,13003.0,1.0,7.7,35.0,"19.414303,-99.157542",19.414303,-99.157542,19.414389
259,7,20,La Catrina Grill House,19.415258,-99.154941,New American Restaurant,13314.0,3.0,,13.0,"19.415192,-99.154837",19.415192,-99.154837,19.415258
260,7,20,Big Mamma's Taqueria,19.415264,-99.154744,Taco Restaurant,13306.0,1.0,,19.0,"19.415192,-99.154837",19.415192,-99.154837,19.415264
261,7,20,Los Burritos del 21,19.415223,-99.154686,Mexican Restaurant,13303.0,1.0,,26.0,"19.415192,-99.154837",19.415192,-99.154837,19.415223
262,7,20,Hamburguesas Chelito,19.415114,-99.154407,Burger Joint,13031.0,1.0,,45.0,"19.415192,-99.154837",19.415192,-99.154837,19.415114
263,1,26,El Perico Campechano,19.412315,-99.158424,Seafood Restaurant,13338.0,3.0,6.2,9.0,"19.412182,-99.158443",19.412182,-99.158443,19.412315
264,1,26,The Beer Company la Roma,19.412,-99.158402,Beer Bar,13006.0,,,14.0,"19.412182,-99.158443",19.412182,-99.158443,19.412
265,1,26,Asador Grill,19.411917,-99.158603,BBQ Joint,13026.0,2.0,,19.0,"19.412182,-99.158443",19.412182,-99.158443,19.411917
266,1,26,Sweet Monster,19.411959,-99.15845,Ice Cream Parlor,13046.0,1.0,6.7,24.0,"19.412182,-99.158443",19.412182,-99.158443,19.411959
267,1,26,Maizajo,19.412273,-99.158683,Mexican Restaurant,13303.0,1.0,,29.0,"19.412182,-99.158443",19.412182,-99.158443,19.412273
268,1,26,Alan's Pub,19.411876,-99.158545,Pub,13018.0,1.0,,31.0,"19.412182,-99.158443",19.412182,-99.158443,19.411876
269,1,26,Las Musas de PapáSibarita,19.412098,-99.158009,Italian Restaurant,13236.0,2.0,7.4,36.0,"19.412182,-99.158443",19.412182,-99.158443,19.412098
270,1,26,El Picha,19.412417,-99.15815,Restaurant,13065.0,2.0,,40.0,"19.412182,-99.158443",19.412182,-99.158443,19.412417
271,1,26,Le gutie,19.411932,-99.158145,Bar,13003.0,2.0,6.3,41.0,"19.412182,-99.158443",19.412182,-99.158443,19.411932
272,1,26,Santa Elisabetta,19.412098,-99.158009,Coffee Shop,13035.0,,,46.0,"19.412182,-99.158443",19.412182,-99.158443,19.412098
273,1,26,La Torre Nevera,19.411862,-99.158737,Bar,13003.0,2.0,,49.0,"19.412182,-99.158443",19.412182,-99.158443,19.411862
274,1,26,Quecas Orizaba,19.412603,-99.158513,Mexican Restaurant,13303.0,1.0,7.1,57.0,"19.412182,-99.158443",19.412182,-99.158443,19.412603
275,1,26,Quesadillas Nice la Roma!,19.412603,-99.158513,Eastern European Restaurant,13139.0,2.0,,63.0,"19.412182,-99.158443",19.412182,-99.158443,19.412603
276,1,26,La Sombrilla Amarilla,19.412603,-99.158513,Taco Restaurant,13306.0,1.0,,65.0,"19.412182,-99.158443",19.412182,-99.158443,19.412603
277,6,13,El Pasito,19.41289,-99.155308,Taco Restaurant,13306.0,1.0,8.2,18.0,"19.412829,-99.155116",19.412829,-99.155116,19.41289
278,6,13,Puesto de Mariscos Katy,19.41259,-99.155095,Seafood Restaurant,13338.0,3.0,,21.0,"19.412829,-99.155116",19.412829,-99.155116,19.41259
279,6,13,Fleming,19.412673,-99.154894,Restaurant,13065.0,,,29.0,"19.412829,-99.155116",19.412829,-99.155116,19.412673
280,6,13,Potzollcalli Cuauhtemoc la Roma,19.413194,-99.154889,Fast Food Restaurant,13145.0,,,47.0,"19.412829,-99.155116",19.412829,-99.155116,19.413194
281,6,13,Julia's Bar,19.413001,-99.155041,Karaoke Bar,13015.0,2.0,,658.0,"19.412829,-99.155116",19.412829,-99.155116,19.413001
282,35,0,Antojitos Ana Laura,19.408974,-99.167285,Taco Restaurant,13306.0,1.0,,9.0,"19.409098,-99.167181",19.409098,-99.167181,19.408974
283,35,0,El Parrillón de Gus,19.409232,-99.167273,Taco Restaurant,13306.0,1.0,,17.0,"19.409098,-99.167181",19.409098,-99.167181,19.409232
284,35,0,Ensaladas el Jarocho,19.409288,-99.16719,Salad Restaurant,13332.0,1.0,,21.0,"19.409098,-99.167181",19.409098,-99.167181,19.409288
285,35,0,El Pescadito,19.409291,-99.166991,Seafood Restaurant,13338.0,3.0,8.6,29.0,"19.409098,-99.167181",19.409098,-99.167181,19.409291
286,35,0,Domino's Pizza,19.409429,-99.167316,Pizzeria,13064.0,1.0,5.8,39.0,"19.409098,-99.167181",19.409098,-99.167181,19.409429
287,35,0,Bar Sixtie's,19.409456,-99.167268,Burger Joint,13031.0,1.0,,40.0,"19.409098,-99.167181",19.409098,-99.167181,19.409456
288,35,0,Keen'ki,19.409195,-99.167586,Taco Restaurant,13306.0,1.0,,43.0,"19.409098,-99.167181",19.409098,-99.167181,19.409195
289,35,0,Birrieria Jalisco,19.408931,-99.167613,Mexican Restaurant,13303.0,1.0,,48.0,"19.409098,-99.167181",19.409098,-99.167181,19.408931
290,12,18,súper Tortas Zaragoza,19.406414,-99.166734,Mexican Restaurant,13303.0,1.0,,13.0,"19.406236,-99.166616",19.406236,-99.166616,19.406414
291,12,18,Tortas la Roma,19.406224,-99.166252,Sandwich Restaurant,13334.0,1.0,,22.0,"19.406236,-99.166616",19.406236,-99.166616,19.406224
292,12,18,Tacos el Parrillon,19.406224,-99.166252,Taco Restaurant,13306.0,1.0,,22.0,"19.406236,-99.166616",19.406236,-99.166616,19.406224
293,12,18,Café Rivoli,19.40614,-99.16677,Café,13034.0,1.0,5.9,25.0,"19.406236,-99.166616",19.406236,-99.166616,19.40614
294,12,18,El Parrillon,19.406336,-99.166387,Taco Restaurant,13306.0,1.0,5.5,26.0,"19.406236,-99.166616",19.406236,-99.166616,19.406336
295,12,18,Quesadillas Pepe,19.40614,-99.16677,Mexican Restaurant,13303.0,1.0,,29.0,"19.406236,-99.166616",19.406236,-99.166616,19.40614
296,12,18,Tacos el califa de leon,19.405962,-99.16673,Restaurant,13065.0,,,32.0,"19.406236,-99.166616",19.406236,-99.166616,19.405962
297,12,18,"La Huerta, Metropolitano",19.406484,-99.166408,Restaurant,13065.0,,,35.0,"19.406236,-99.166616",19.406236,-99.166616,19.406484
298,12,18,Rincon Azul Mexico,19.406544,-99.166766,Mexican Restaurant,13303.0,1.0,4.8,37.0,"19.406236,-99.166616",19.406236,-99.166616,19.406544
299,12,18,Sushi Ryu Time. Calle Tepic #126,19.405838,-99.16663,Sushi Restaurant,13276.0,2.0,,44.0,"19.406236,-99.166616",19.406236,-99.166616,19.405838
300,12,18,El Rincon Azul Hospital Angeles Metropolitano,19.406523,-99.166783,Restaurant,13065.0,2.0,5.1,56.0,"19.406236,-99.166616",19.406236,-99.166616,19.406523
301,12,18,La Huerta Cafe,19.406633,-99.166832,Restaurant,13065.0,2.0,,62.0,"19.406236,-99.166616",19.406236,-99.166616,19.406633
302,15,20,La Vaca Negra,19.407299,-99.155345,Diner,13049.0,2.0,6.6,11.0,"19.407517,-99.155373",19.407517,-99.155373,19.407299
303,15,20,Joe's Burger,19.407612,-99.15533,Burger Joint,13031.0,1.0,,11.0,"19.407517,-99.155373",19.407517,-99.155373,19.407612
304,15,20,Tacos afuera del Auditorio Centro Médico,19.407299,-99.155345,Taco Restaurant,13306.0,1.0,,20.0,"19.407517,-99.155373",19.407517,-99.155373,19.407299
305,15,20,Los de Arrachera Grill,19.407572,-99.155625,BBQ Joint,13026.0,2.0,,20.0,"19.407517,-99.155373",19.407517,-99.155373,19.407572
306,15,20,Cochinita Pibil Chelis,19.407614,-99.155367,Mexican Restaurant,13303.0,1.0,7.3,22.0,"19.407517,-99.155373",19.407517,-99.155373,19.407614
307,15,20,Café de la Tía María,19.407271,-99.155412,Mexican Restaurant,13303.0,1.0,4.7,25.0,"19.407517,-99.155373",19.407517,-99.155373,19.407271
308,15,20,Choripan Argentino,19.407784,-99.155375,Argentinian Restaurant,13070.0,2.0,,29.0,"19.407517,-99.155373",19.407517,-99.155373,19.407784
309,15,20,Joe's Pizza,19.407614,-99.155367,Burger Joint,13031.0,1.0,,35.0,"19.407517,-99.155373",19.407517,-99.155373,19.407614
310,15,20,Joe's Burguer,19.40713,-99.155353,BBQ Joint,13026.0,2.0,,43.0,"19.407517,-99.155373",19.407517,-99.155373,19.40713
311,22,1,Hells Pizza,19.40448,-99.16059,Pizzeria,13064.0,1.0,5.3,10.0,"19.404268,-99.160503",19.404268,-99.160503,19.40448
312,22,1,Tacos Don Frank,19.404014,-99.160778,Restaurant,13065.0,2.0,7.7,22.0,"19.404268,-99.160503",19.404268,-99.160503,19.404014
313,22,1,Lo del Che,19.404368,-99.160701,BBQ Joint,13026.0,2.0,,23.0,"19.404268,-99.160503",19.404268,-99.160503,19.404368
314,22,1,Keep Calm Play Beer Pong,19.404053,-99.160495,Beer Bar,13006.0,,,23.0,"19.404268,-99.160503",19.404268,-99.160503,19.404053
315,22,1,Gandinis Casino & Dance Club,19.404495,-99.160399,Speakeasy,13021.0,3.0,,25.0,"19.404268,-99.160503",19.404268,-99.160503,19.404495
316,22,1,Sury Pau,19.40426,-99.160797,Restaurant,13065.0,2.0,,30.0,"19.404268,-99.160503",19.404268,-99.160503,19.40426
317,21,2,Rodeo Cruzeli's,19.406135,-99.183667,Pizzeria,13064.0,1.0,,14.0,"19.406069,-99.183549",19.406069,-99.183549,19.406135
318,21,2,Aura Bistrot,19.406149,-99.183363,Bistro,13027.0,,8.3,21.0,"19.406069,-99.183549",19.406069,-99.183549,19.406149
319,21,2,El Antojito Francés,19.405916,-99.183457,French Restaurant,13148.0,3.0,6.2,23.0,"19.406069,-99.183549",19.406069,-99.183549,19.405916
320,21,2,La Tlaxcalteca Antojitos,19.406164,-99.183171,Mexican Restaurant,13303.0,1.0,5.3,35.0,"19.406069,-99.183549",19.406069,-99.183549,19.406164
321,21,2,Atamalkualiztli,19.405821,-99.183216,Bistro,13027.0,,,36.0,"19.406069,-99.183549",19.406069,-99.183549,19.405821
322,21,2,Lonchería la Tlaxcalteca,19.405821,-99.183216,Mexican Restaurant,13303.0,1.0,6.6,38.0,"19.406069,-99.183549",19.406069,-99.183549,19.405821
323,21,2,Los Mila,19.406021,-99.18319,Taco Restaurant,13306.0,1.0,,38.0,"19.406069,-99.183549",19.406069,-99.183549,19.406021
324,21,2,The Shrimp With The Big Stomach,19.405962,-99.183997,Seafood Restaurant,13338.0,3.0,,48.0,"19.406069,-99.183549",19.406069,-99.183549,19.405962
325,17,5,Barbacoa y Consome Capulhuac,19.404797,-99.179106,Taco Restaurant,13306.0,1.0,,17.0,"19.404651,-99.179375",19.404651,-99.179375,19.404797
326,17,5,Barbacoa progreso,19.404507,-99.179651,Taco Restaurant,13306.0,1.0,6.2,23.0,"19.404651,-99.179375",19.404651,-99.179375,19.404507
327,17,5,Restaurante las Delicias,19.40477,-99.179173,Mexican Restaurant,13303.0,1.0,6.1,23.0,"19.404651,-99.179375",19.404651,-99.179375,19.40477
328,17,5,El Rincón Poblano,19.404507,-99.179651,Mexican Restaurant,13303.0,1.0,6.2,28.0,"19.404651,-99.179375",19.404651,-99.179375,19.404507
329,17,5,Santa Elena,19.404974,-99.179463,Restaurant,13065.0,,,37.0,"19.404651,-99.179375",19.404651,-99.179375,19.404974
330,17,5,Club 03,19.404561,-99.179834,Bar,13003.0,2.0,,55.0,"19.404651,-99.179375",19.404651,-99.179375,19.404561
331,22,1,El Taco Ranchero,19.401653,-99.176392,Mexican Restaurant,13303.0,1.0,,3.0,"19.401682,-99.176398",19.401682,-99.176398,19.401653
332,22,1,Taqueria Escandon,19.401684,-99.1766,Taco Restaurant,13306.0,1.0,6.8,6.0,"19.401682,-99.176398",19.401682,-99.176398,19.401684
333,22,1,"Tacos ""El Rebaño""",19.40185,-99.176199,Taco Restaurant,13306.0,1.0,,7.0,"19.401682,-99.176398",19.401682,-99.176398,19.40185
334,22,1,Tacos los Volcanes,19.401744,-99.176499,Taco Restaurant,13306.0,1.0,,12.0,"19.401682,-99.176398",19.401682,-99.176398,19.401744
335,22,1,El Pollón de Jalisco,19.401878,-99.176132,Fried Chicken Joint,13055.0,1.0,6.9,14.0,"19.401682,-99.176398",19.401682,-99.176398,19.401878
336,22,1,Fonda la Tia,19.401804,-99.176319,Restaurant,13065.0,2.0,,15.0,"19.401682,-99.176398",19.401682,-99.176398,19.401804
337,22,1,El Vitaminas,19.402026,-99.176556,Mexican Restaurant,13303.0,1.0,5.6,17.0,"19.401682,-99.176398",19.401682,-99.176398,19.402026
338,22,1,La Economica,19.401835,-99.176391,Restaurant,13065.0,,,17.0,"19.401682,-99.176398",19.401682,-99.176398,19.401835
339,22,1,Funk Rock Cafe,19.402026,-99.176556,Burger Joint,13031.0,1.0,8.0,28.0,"19.401682,-99.176398",19.401682,-99.176398,19.402026
340,22,1,"Quecas, Gorditas y Pozole",19.401798,-99.176647,Mexican Restaurant,13303.0,1.0,,29.0,"19.401682,-99.176398",19.401682,-99.176398,19.401798
341,22,1,Quique&Chuy,19.401864,-99.176007,Comfort Food Restaurant,13134.0,,,39.0,"19.401682,-99.176398",19.401682,-99.176398,19.401864
342,22,1,Sopas Perico,19.402026,-99.176556,Restaurant,13065.0,2.0,,41.0,"19.401682,-99.176398",19.401682,-99.176398,19.402026
343,22,1,"Tacos ""Ruben's""",19.401824,-99.175949,Taco Restaurant,13306.0,1.0,8.0,49.0,"19.401682,-99.176398",19.401682,-99.176398,19.401824
344,22,1,Playitas Escandon,19.400635,-99.172559,Seafood Restaurant,13338.0,3.0,7.4,14.0,"19.400767,-99.172533",19.400767,-99.172533,19.400635
345,22,1,Tacos las Cazuelas,19.400628,-99.172573,Taco Restaurant,13306.0,1.0,,15.0,"19.400767,-99.172533",19.400767,-99.172533,19.400628
346,22,1,Chilakilazos,19.400837,-99.172848,Mexican Restaurant,13303.0,1.0,7.2,16.0,"19.400767,-99.172533",19.400767,-99.172533,19.400837
347,22,1,"Fonda ""México Lindo""",19.400864,-99.172781,Restaurant,13065.0,2.0,,17.0,"19.400767,-99.172533",19.400767,-99.172533,19.400864
348,22,1,La Tipica,19.400757,-99.1727,Mexican Restaurant,13303.0,1.0,,17.0,"19.400767,-99.172533",19.400767,-99.172533,19.400757
349,22,1,Las Ahogadas Express,19.401001,-99.172763,Fast Food Restaurant,13145.0,1.0,,19.0,"19.400767,-99.172533",19.400767,-99.172533,19.401001
350,22,1,El Rinconcito Italiano,19.400933,-99.172772,Pizzeria,13064.0,1.0,,20.0,"19.400767,-99.172533",19.400767,-99.172533,19.400933
351,22,1,El divino pecado,19.401003,-99.172446,Salad Restaurant,13332.0,1.0,,22.0,"19.400767,-99.172533",19.400767,-99.172533,19.401003
352,22,1,Pilarica,19.400809,-99.172915,Mexican Restaurant,13303.0,1.0,5.7,25.0,"19.400767,-99.172533",19.400767,-99.172533,19.400809
353,22,1,"Tacos de Suadero ""El Chido""",19.400468,-99.172643,Taco Restaurant,13306.0,1.0,,25.0,"19.400767,-99.172533",19.400767,-99.172533,19.400468
354,22,1,Ensaladas las flores,19.400562,-99.172884,Salad Restaurant,13332.0,1.0,,26.0,"19.400767,-99.172533",19.400767,-99.172533,19.400562
355,22,1,Chilaquilazos,19.400885,-99.172775,Mexican Restaurant,13303.0,1.0,,28.0,"19.400767,-99.172533",19.400767,-99.172533,19.400885
356,22,1,"Taqueria ""Que Rico Taco""",19.400427,-99.172585,Taco Restaurant,13306.0,1.0,,29.0,"19.400767,-99.172533",19.400767,-99.172533,19.400427
357,22,1,La coqueta de merida,19.40107,-99.172754,Taco Restaurant,13306.0,1.0,,31.0,"19.400767,-99.172533",19.400767,-99.172533,19.40107
358,22,1,Babylon,19.400809,-99.172915,Speakeasy,13021.0,3.0,,40.0,"19.400767,-99.172533",19.400767,-99.172533,19.400809
359,22,1,Taqueria y Cevicheria de Barrio,19.400414,-99.17246,Seafood Restaurant,13338.0,3.0,,42.0,"19.400767,-99.172533",19.400767,-99.172533,19.400414
360,22,1,Mac Pancho's Burguers,19.400441,-99.172773,Burger Joint,13031.0,1.0,,44.0,"19.400767,-99.172533",19.400767,-99.172533,19.400441
361,22,1,Café 54,19.400904,-99.17209,Coffee Shop,13035.0,1.0,,48.0,"19.400767,-99.172533",19.400767,-99.172533,19.400904
362,22,1,"Cata de Vinos, Licores y Cervezas",19.400809,-99.172915,Wine Bar,13025.0,2.0,,51.0,"19.400767,-99.172533",19.400767,-99.172533,19.400809
363,17,2,Hamburguesas la Salle,19.408918,-99.181829,Burger Joint,13031.0,1.0,,16.0,"19.408841,-99.181692",19.408841,-99.181692,19.408918
364,17,2,Tortas el Puas,19.408555,-99.181782,Sandwich Restaurant,13334.0,1.0,,20.0,"19.408841,-99.181692",19.408841,-99.181692,19.408555
365,17,2,Quesadillas Chingonas,19.40876,-99.181755,Taco Restaurant,13306.0,1.0,,22.0,"19.408841,-99.181692",19.408841,-99.181692,19.40876
366,17,2,Tlacoyos y Quecas,19.408967,-99.181894,Mexican Restaurant,13303.0,1.0,,25.0,"19.408841,-99.181692",19.408841,-99.181692,19.408967
367,17,2,Selekto,19.40876,-99.181755,Restaurant,13065.0,2.0,5.0,25.0,"19.408841,-99.181692",19.408841,-99.181692,19.40876
368,17,2,Hamburguesas y Jochos Chingones,19.40876,-99.181755,Burger Joint,13031.0,1.0,,27.0,"19.408841,-99.181692",19.408841,-99.181692,19.40876
369,17,2,"hochos ""El Bigotes""",19.408855,-99.181996,Hot Dog Joint,13058.0,1.0,,43.0,"19.408841,-99.181692",19.408841,-99.181692,19.408855
370,18,9,The Beer Company,19.404402,-99.171431,Mexican Restaurant,13303.0,1.0,,5.0,"19.404452,-99.171438",19.404452,-99.171438,19.404402
371,18,9,Buffalo wings,19.404432,-99.17168,Wings Joint,13388.0,1.0,,10.0,"19.404452,-99.171438",19.404452,-99.171438,19.404432
372,18,9,La Cebolla Morada,19.404323,-99.171631,Mexican Restaurant,13303.0,1.0,7.8,16.0,"19.404452,-99.171438",19.404452,-99.171438,19.404323
373,18,9,Churreria Porfirio Condesa,19.404255,-99.17164,Coffee Shop,13035.0,1.0,,16.0,"19.404452,-99.171438",19.404452,-99.171438,19.404255
374,18,9,El Coshiloco Condesa,19.404587,-99.171335,Taco Restaurant,13306.0,1.0,,18.0,"19.404452,-99.171438",19.404452,-99.171438,19.404587
375,18,9,El Mañanero Desayunos,19.404405,-99.171674,Comfort Food Restaurant,13134.0,,,25.0,"19.404452,-99.171438",19.404452,-99.171438,19.404405
376,18,9,Delicioso y Sano,19.404202,-99.171141,Burger Joint,13031.0,1.0,,26.0,"19.404452,-99.171438",19.404452,-99.171438,19.404202
377,18,9,Miscelánea Chancla Azul,19.404448,-99.171172,Sandwich Restaurant,13334.0,1.0,,26.0,"19.404452,-99.171438",19.404452,-99.171438,19.404448
378,18,9,El Coshiloco,19.404449,-99.171169,Mexican Restaurant,13303.0,1.0,,28.0,"19.404452,-99.171438",19.404452,-99.171438,19.404449
379,18,9,Los Arroces,19.404646,-99.171639,Comfort Food Restaurant,13134.0,,,30.0,"19.404452,-99.171438",19.404452,-99.171438,19.404646
380,18,9,Sushi-sito,19.404667,-99.17127,Sushi Restaurant,13276.0,2.0,5.6,31.0,"19.404452,-99.171438",19.404452,-99.171438,19.404667
381,18,9,El Rabanito Banda,19.404145,-99.171591,Bar,13003.0,2.0,,32.0,"19.404452,-99.171438",19.404452,-99.171438,19.404145
382,18,9,"Tacos de Guisados ""Del Chef""",19.404161,-99.171083,Taco Restaurant,13306.0,1.0,,44.0,"19.404452,-99.171438",19.404452,-99.171438,19.404161
383,18,9,Burger,19.40472,-99.171769,Burger Joint,13031.0,1.0,,46.0,"19.404452,-99.171438",19.404452,-99.171438,19.40472
384,18,9,Las Hijas de la Tostada,19.404667,-99.17127,Taco Restaurant,13306.0,1.0,,53.0,"19.404452,-99.171438",19.404452,-99.171438,19.404667
385,20,7,Tassende,19.404631,-99.170261,Restaurant,13065.0,2.0,,35.0,"19.404554,-99.169953",19.404554,-99.169953,19.404631
386,20,7,Rosas Carrizosa Eloy,19.404644,-99.170386,Restaurant,13065.0,,,46.0,"19.404554,-99.169953",19.404554,-99.169953,19.404644
387,20,7,Pásele Joven! Birria y Pozole,19.404343,-99.170172,Mexican Restaurant,13303.0,1.0,,47.0,"19.404554,-99.169953",19.404554,-99.169953,19.404343
388,25,2,Tortas Locas Hipocampo,19.438439,-99.192995,Fast Food Restaurant,13145.0,1.0,,13.0,"19.438349,-99.192904",19.438349,-99.192904,19.438439
389,25,2,Los Chillakillers,19.438125,-99.192898,Mexican Restaurant,13303.0,1.0,,24.0,"19.438349,-99.192904",19.438349,-99.192904,19.438125
390,25,2,Tacos de Muerte Lenta,19.438565,-99.192807,Taco Restaurant,13306.0,1.0,,31.0,"19.438349,-99.192904",19.438349,-99.192904,19.438565
391,25,2,Jhonny's Bar,19.438261,-99.193227,Dive Bar,13010.0,1.0,,37.0,"19.438349,-99.192904",19.438349,-99.192904,19.438261
392,25,2,SAM'S Café,19.438685,-99.192589,Fast Food Restaurant,13145.0,1.0,5.5,49.0,"19.438349,-99.192904",19.438349,-99.192904,19.438685
393,24,3,Corcho & Jamon,19.43755,-99.188773,Spanish Restaurant,13345.0,2.0,,5.0,"19.437596,-99.188785",19.437596,-99.188785,19.43755
394,24,3,La Piccola Trattoria,19.437595,-99.188879,Pizzeria,13064.0,2.0,7.6,7.0,"19.437596,-99.188785",19.437596,-99.188785,19.437595
395,24,3,Caffe Diemme Polanco,19.4376,-99.188877,Bistro,13027.0,,,9.0,"19.437596,-99.188785",19.437596,-99.188785,19.4376
396,24,3,Los Cauques,19.437431,-99.188647,Seafood Restaurant,13338.0,3.0,,19.0,"19.437596,-99.188785",19.437596,-99.188785,19.437431
397,24,3,Burgersmx,19.437664,-99.18908,Burger Joint,13031.0,1.0,,31.0,"19.437596,-99.188785",19.437596,-99.188785,19.437664
398,24,3,Mi México Lindo,19.43758,-99.189071,Mexican Restaurant,13303.0,1.0,6.3,32.0,"19.437596,-99.188785",19.437596,-99.188785,19.43758
399,24,3,María Clemente,19.437706,-99.18909,Restaurant,13065.0,2.0,,34.0,"19.437596,-99.188785",19.437596,-99.188785,19.437706
400,24,3,Jalapeño,19.437254,-99.188803,Mexican Restaurant,13303.0,1.0,,38.0,"19.437596,-99.188785",19.437596,-99.188785,19.437254
401,24,3,Rock House Vip,19.437347,-99.189165,Whisky Bar,13024.0,3.0,,45.0,"19.437596,-99.188785",19.437596,-99.188785,19.437347
402,26,1,Thor Tortas,19.435723,-99.191251,Sandwich Restaurant,13334.0,1.0,,33.0,"19.435882,-99.19152",19.435882,-99.19152,19.435723
403,26,1,KFC,19.435824,-99.1912,Fast Food Restaurant,13145.0,1.0,,34.0,"19.435882,-99.19152",19.435882,-99.19152,19.435824
404,17,5,Quedadillas y Tacos la Güerita,19.434844,-99.183419,Mexican Restaurant,13303.0,1.0,,10.0,"19.434861,-99.183322",19.434861,-99.183322,19.434844
405,17,5,Tacos de Suderman,19.435014,-99.183514,Taco Restaurant,13306.0,1.0,,33.0,"19.434861,-99.183322",19.434861,-99.183322,19.435014
406,17,5,Perú Experiencia Gourmet,19.434506,-99.183134,Restaurant,13065.0,2.0,,44.0,"19.434861,-99.183322",19.434861,-99.183322,19.434506
407,17,5,Italiano Liverpool,19.434532,-99.183051,Pizzeria,13064.0,1.0,6.1,46.0,"19.434861,-99.183322",19.434861,-99.183322,19.434532
408,17,5,Marisqueria Gourmet Liverpool,19.434511,-99.183053,Seafood Restaurant,13338.0,3.0,5.9,47.0,"19.434861,-99.183322",19.434861,-99.183322,19.434511
409,17,5,Sushi Gourmet Liverpool,19.434756,-99.182882,Sushi Restaurant,13276.0,2.0,,47.0,"19.434861,-99.183322",19.434861,-99.183322,19.434756
410,17,5,Perú,19.434563,-99.183193,Peruvian Restaurant,13322.0,2.0,,47.0,"19.434861,-99.183322",19.434861,-99.183322,19.434563
411,17,5,Experiencia Gourmet Liverpool Polanco,19.434646,-99.182992,Gastropub,13057.0,2.0,8.1,51.0,"19.434861,-99.183322",19.434861,-99.183322,19.434646
412,26,9,Eldiez,19.433595,-99.188198,Argentinian Restaurant,13070.0,2.0,,6.0,"19.433567,-99.188096",19.433567,-99.188096,19.433595
413,26,9,Puesto tamales & chilaquiles Spencer,19.433414,-99.187885,Mexican Restaurant,13303.0,1.0,,27.0,"19.433567,-99.188096",19.433567,-99.188096,19.433414
414,26,9,H400 Polanco,19.433184,-99.188252,Cocktail Bar,13009.0,3.0,,34.0,"19.433567,-99.188096",19.433567,-99.188096,19.433184
415,26,9,El Tucas,19.433843,-99.187912,Restaurant,13065.0,,,36.0,"19.433567,-99.188096",19.433567,-99.188096,19.433843
416,26,9,Karaoke My way,19.433649,-99.188381,Karaoke Bar,13015.0,2.0,6.3,37.0,"19.433567,-99.188096",19.433567,-99.188096,19.433649
417,26,9,Restaurante Bros el Original,19.433912,-99.187903,Seafood Restaurant,13338.0,,,43.0,"19.433567,-99.188096",19.433567,-99.188096,19.433912
418,26,9,Los Villanos,19.43325,-99.18837,Taco Restaurant,13306.0,1.0,7.7,45.0,"19.433567,-99.188096",19.433567,-99.188096,19.43325
419,27,0,Comida de Cajuela,19.433288,-99.195841,American Restaurant,13068.0,2.0,,1.0,"19.433419,-99.195746",19.433419,-99.195746,19.433288
420,27,0,Comida de la Señora,19.433549,-99.195733,Diner,13049.0,1.0,,14.0,"19.433419,-99.195746",19.433419,-99.195746,19.433549
421,27,0,Woolworth Cafe W Polanco,19.433507,-99.195939,Coffee Shop,13035.0,,,22.0,"19.433419,-99.195746",19.433419,-99.195746,19.433507
422,27,0,Doña Taco,19.433657,-99.196046,Burrito Restaurant,13305.0,1.0,,32.0,"19.433419,-99.195746",19.433419,-99.195746,19.433657
423,24,3,Fogo de Chão México,19.431356,-99.19565,Brazilian Restaurant,13079.0,4.0,8.5,5.0,"19.431417,-99.195774",19.431417,-99.195774,19.431356
424,24,3,Bacos Restaurante Bar,19.431328,-99.195717,Restaurant,13065.0,,,11.0,"19.431417,-99.195774",19.431417,-99.195774,19.431328
425,24,3,Moshi Moshi,19.43126,-99.195726,Restaurant,13065.0,,,18.0,"19.431417,-99.195774",19.431417,-99.195774,19.43126
426,24,3,Nautilius polanco,19.431464,-99.196016,Seafood Restaurant,13338.0,3.0,,20.0,"19.431417,-99.195774",19.431417,-99.195774,19.431464
427,24,3,Mouk Polanco,19.431109,-99.195619,Restaurant,13065.0,2.0,,24.0,"19.431417,-99.195774",19.431417,-99.195774,19.431109
428,24,3,Pagano,19.431521,-99.195565,Restaurant,13065.0,,,24.0,"19.431417,-99.195774",19.431417,-99.195774,19.431521
429,24,3,Operadora Hotelera de Personal,19.43115,-99.195677,Restaurant,13065.0,,,31.0,"19.431417,-99.195774",19.431417,-99.195774,19.43115
430,24,3,Maki Maki,19.43123,-99.196032,Japanese Restaurant,13263.0,2.0,,34.0,"19.431417,-99.195774",19.431417,-99.195774,19.43123
431,24,3,Gala Polanco,19.431302,-99.195467,Bar,13003.0,,,34.0,"19.431417,-99.195774",19.431417,-99.195774,19.431302
432,24,3,Leavimex,19.431546,-99.196132,Restaurant,13065.0,,,40.0,"19.431417,-99.195774",19.431417,-99.195774,19.431546
433,24,3,La Cosa Nuestra,19.43123,-99.19611,Pizzeria,13064.0,,,40.0,"19.431417,-99.195774",19.431417,-99.195774,19.43123
434,24,3,Envy,19.431467,-99.195382,Night Club,10032.0,,,41.0,"19.431417,-99.195774",19.431417,-99.195774,19.431467
435,24,3,Pizza Hut,19.431686,-99.19548,Pizzeria,13064.0,,,42.0,"19.431417,-99.195774",19.431417,-99.195774,19.431686
436,24,3,Garabatos,19.431464,-99.196016,Restaurant,13065.0,2.0,8.0,44.0,"19.431417,-99.195774",19.431417,-99.195774,19.431464
437,24,3,Piaf,19.431233,-99.195476,Karaoke Bar,13015.0,2.0,,45.0,"19.431417,-99.195774",19.431417,-99.195774,19.431233
438,24,3,Catamundi,19.431082,-99.195686,Bistro,13027.0,3.0,8.9,47.0,"19.431417,-99.195774",19.431417,-99.195774,19.431082
439,24,3,Cambelche,19.431586,-99.19619,Restaurant,13065.0,2.0,,64.0,"19.431417,-99.195774",19.431417,-99.195774,19.431586
440,23,4,Carajillo - Masaryk,19.431156,-99.182086,Cocktail Bar,13009.0,3.0,6.6,13.0,"19.431033,-99.18222",19.431033,-99.18222,19.431156
441,23,4,Terraza Maxwell,19.431166,-99.182152,Restaurant,13065.0,2.0,,16.0,"19.431033,-99.18222",19.431033,-99.18222,19.431166
442,23,4,Japones,19.430936,-99.182084,Sushi Restaurant,13276.0,,,17.0,"19.431033,-99.18222",19.431033,-99.18222,19.430936
443,23,4,Subway,19.430922,-99.181959,Deli,13039.0,1.0,5.9,18.0,"19.431033,-99.18222",19.431033,-99.18222,19.430922
444,23,4,Rubaiyat,19.431141,-99.182057,Brazilian Restaurant,13079.0,3.0,8.1,23.0,"19.431033,-99.18222",19.431033,-99.18222,19.431141
445,23,4,Terraza Baby Grill,19.431164,-99.18188,Restaurant,13065.0,2.0,,38.0,"19.431033,-99.18222",19.431033,-99.18222,19.431164
446,23,4,Casa del Corredor,19.430774,-99.181955,Restaurant,13065.0,2.0,,39.0,"19.431033,-99.18222",19.431033,-99.18222,19.430774
447,23,4,Masaryk 18 Tacos & Beer,19.43147,-99.182204,Taco Restaurant,13306.0,1.0,6.3,41.0,"19.431033,-99.18222",19.431033,-99.18222,19.43147
448,23,4,Radio Trece,19.430978,-99.181825,Piano Bar,13017.0,,,41.0,"19.431033,-99.18222",19.431033,-99.18222,19.430978
449,23,4,Nopal Inn,19.431265,-99.181914,Restaurant,13065.0,,,41.0,"19.431033,-99.18222",19.431033,-99.18222,19.431265
450,23,4,T&B tacos y más,19.431428,-99.182229,Bistro,13027.0,,,43.0,"19.431033,-99.18222",19.431033,-99.18222,19.431428
451,23,4,Plaza del Taco,19.431448,-99.18216,Restaurant,13065.0,2.0,,46.0,"19.431033,-99.18222",19.431033,-99.18222,19.431448
452,13,2,Tacos de Guisado Seneca,19.430321,-99.203325,Taco Restaurant,13306.0,1.0,,17.0,"19.430515,-99.203331",19.430515,-99.203331,19.430321
453,13,2,El Templo del Taco,19.430556,-99.202914,Mexican Restaurant,13303.0,1.0,,48.0,"19.430515,-99.203331",19.430515,-99.203331,19.430556
454,22,5,Lynis,19.429653,-99.193339,Mexican Restaurant,13303.0,,,20.0,"19.42977,-99.19349",19.42977,-99.19349,19.429653
455,22,5,Mythos Estiatorio,19.429584,-99.193348,Gastropub,13057.0,,,25.0,"19.42977,-99.19349",19.42977,-99.19349,19.429584
456,22,5,Los de Ensenada,19.429901,-99.193239,Restaurant,13065.0,2.0,,30.0,"19.42977,-99.19349",19.42977,-99.19349,19.429901
457,27,0,Margaret,19.427762,-99.191799,Restaurant,13065.0,2.0,,28.0,"19.42783,-99.191539",19.42783,-99.191539,19.427762
458,27,0,La Choza Encantada,19.428125,-99.191701,Fast Food Restaurant,13145.0,,,36.0,"19.42783,-99.191539",19.42783,-99.191539,19.428125
459,27,0,Green salads,19.428138,-99.191725,Salad Restaurant,13332.0,1.0,,39.0,"19.42783,-99.191539",19.42783,-99.191539,19.428138
460,27,0,Cata Club Cava Palacio,19.427922,-99.191094,Wine Bar,13025.0,2.0,,44.0,"19.42783,-99.191539",19.42783,-99.191539,19.427922
461,27,0,Tacos Doña Tere,19.428243,-99.191611,Restaurant,13065.0,2.0,,46.0,"19.42783,-99.191539",19.42783,-99.191539,19.428243
462,52,11,Cantina numero 20,19.42684,-99.194023,Restaurant,13065.0,,,11.0,"19.426744,-99.193986",19.426744,-99.193986,19.42684
463,52,11,Bosque Gourmet,19.426781,-99.193565,Restaurant,13065.0,2.0,,44.0,"19.426744,-99.193986",19.426744,-99.193986,19.426781
464,52,11,Los Canarios,19.426934,-99.194364,Mexican Restaurant,13303.0,1.0,,44.0,"19.426744,-99.193986",19.426744,-99.193986,19.426934
465,52,11,Palm Polanco,19.427128,-99.193756,American Restaurant,13068.0,2.0,7.9,49.0,"19.426744,-99.193986",19.426744,-99.193986,19.427128
466,14,1,Chilla Kiles,19.434028,-99.180095,Mexican Restaurant,13303.0,1.0,,17.0,"19.434147,-99.179835",19.434147,-99.179835,19.434028
467,14,1,Quesadillas de Thiers,19.434125,-99.18002,Taco Restaurant,13306.0,1.0,,23.0,"19.434147,-99.179835",19.434147,-99.179835,19.434125
468,14,1,Mercadito,19.434298,-99.180028,Taco Restaurant,13306.0,1.0,,26.0,"19.434147,-99.179835",19.434147,-99.179835,19.434298
469,14,1,Hamburguesas y Hot Dogs,19.434125,-99.18002,Burger Joint,13031.0,1.0,,29.0,"19.434147,-99.179835",19.434147,-99.179835,19.434125
470,14,1,Tacos de carnitas,19.434453,-99.180167,Taco Restaurant,13306.0,1.0,,34.0,"19.434147,-99.179835",19.434147,-99.179835,19.434453
471,14,1,Mercado Kepler,19.434097,-99.180087,Mexican Restaurant,13303.0,1.0,,37.0,"19.434147,-99.179835",19.434147,-99.179835,19.434097
472,14,1,Cocteles y Fruta Tianguis de los Viernes,19.434418,-99.180086,Salad Restaurant,13332.0,1.0,,39.0,"19.434147,-99.179835",19.434147,-99.179835,19.434418
473,14,1,Tacos Deliciosos de Guisado,19.434496,-99.180089,Taco Restaurant,13306.0,1.0,,47.0,"19.434147,-99.179835",19.434147,-99.179835,19.434496
474,15,12,La Taquería de Mario,19.431971,-99.180775,Taco Restaurant,13306.0,1.0,,36.0,"19.432276,-99.18064",19.432276,-99.18064,19.431971
475,15,12,Tacos de Pollo el Emplumado,19.431858,-99.180705,Restaurant,13065.0,2.0,,46.0,"19.432276,-99.18064",19.432276,-99.18064,19.431858
476,23,4,Game Food by las Vegas,19.436055,-99.158101,Fast Food Restaurant,13145.0,1.0,,28.0,"19.436274,-99.158425",19.436274,-99.158425,19.436055
477,23,4,Antojitos CONS,19.436107,-99.1586,Mexican Restaurant,13303.0,1.0,7.4,30.0,"19.436274,-99.158425",19.436274,-99.158425,19.436107
478,23,4,Antojitos Chabela,19.436107,-99.1586,Mexican Restaurant,13303.0,1.0,7.1,30.0,"19.436274,-99.158425",19.436274,-99.158425,19.436107
479,23,4,Italianni's,19.43622,-99.158016,Italian Restaurant,13236.0,2.0,7.0,34.0,"19.436274,-99.158425",19.436274,-99.158425,19.43622
480,23,4,Foodtruck el Buen Burgués,19.4361,-99.158157,Burger Joint,13031.0,1.0,,34.0,"19.436274,-99.158425",19.436274,-99.158425,19.4361
481,23,4,Dissendium,19.436701,-99.15837,Theme Restaurant,13354.0,,,47.0,"19.436274,-99.158425",19.436274,-99.158425,19.436701
482,58,13,Restaurante Bar Marisquero,19.440845,-99.153102,Seafood Restaurant,13338.0,3.0,,16.0,"19.440985,-99.152935",19.440985,-99.152935,19.440845
483,58,13,Restaurant Bar Tijuana,19.440818,-99.153169,Mediterranean Restaurant,13302.0,2.0,8.4,17.0,"19.440985,-99.152935",19.440985,-99.152935,19.440818
484,58,13,El Marisquero,19.440779,-99.152927,Seafood Restaurant,13338.0,3.0,,22.0,"19.440985,-99.152935",19.440985,-99.152935,19.440779
485,58,13,Restaurante Edison,19.440859,-99.153227,Restaurant,13065.0,2.0,,26.0,"19.440985,-99.152935",19.440985,-99.152935,19.440859
486,58,13,Fonda Oaxaqueña,19.440831,-99.153294,Mexican Restaurant,13303.0,1.0,,33.0,"19.440985,-99.152935",19.440985,-99.152935,19.440831
487,25,10,"Tíbet, Recuedos de la Patria Perdida",19.442111,-99.151922,History Museum,10030.0,,,29.0,"19.442467,-99.151658",19.442467,-99.151658,19.442111
488,4,15,Tacos el Chalet,19.400863,-99.163534,Restaurant,13065.0,2.0,,22.0,"19.40071,-99.163831",19.40071,-99.163831,19.400863
489,4,15,La esquina saludable,19.400408,-99.164164,Salad Restaurant,13332.0,1.0,,54.0,"19.40071,-99.163831",19.40071,-99.163831,19.400408
490,16,23,La Flamita Ayuuk,19.401483,-99.15655,Taco Restaurant,13306.0,1.0,6.9,7.0,"19.4015,-99.156406",19.4015,-99.156406,19.401483
491,16,23,Tortillas de Harina,19.401414,-99.156559,Filipino Restaurant,13146.0,2.0,,7.0,"19.4015,-99.156406",19.4015,-99.156406,19.401414
492,16,23,Tacos Tony,19.401695,-99.156439,Taco Restaurant,13306.0,1.0,,21.0,"19.4015,-99.156406",19.4015,-99.156406,19.401695
493,16,23,"Taqueria ""El Perro Feliz""",19.40151,-99.156483,Taco Restaurant,13306.0,1.0,,23.0,"19.4015,-99.156406",19.4015,-99.156406,19.40151
494,16,23,Oasis II,19.401837,-99.156307,Restaurant,13065.0,2.0,5.7,38.0,"19.4015,-99.156406",19.4015,-99.156406,19.401837
495,16,23,Tacos de Canasta Kike,19.401871,-99.156261,Taco Restaurant,13306.0,1.0,,43.0,"19.4015,-99.156406",19.4015,-99.156406,19.401871
496,15,16,El Sazon de la Morena,19.39815,-99.15724,Mexican Restaurant,13303.0,1.0,6.3,30.0,"19.398532,-99.157308",19.398532,-99.157308,19.39815
497,12,7,Quesadillas de la Doña,19.398545,-99.160988,Mexican Restaurant,13303.0,1.0,,18.0,"19.398692,-99.161273",19.398692,-99.161273,19.398545
498,28,3,Fondita Dakota,19.397643,-99.172886,Restaurant,13065.0,2.0,,2.0,"19.397693,-99.172981",19.397693,-99.172981,19.397643
499,28,3,La Mesa 22,19.397779,-99.173185,Restaurant,13065.0,2.0,,12.0,"19.397693,-99.172981",19.397693,-99.172981,19.397779
500,28,3,La Iguana,19.397643,-99.172886,Deli,13039.0,1.0,,14.0,"19.397693,-99.172981",19.397693,-99.172981,19.397643
501,28,3,Il Giornio,19.397354,-99.173114,Italian Restaurant,13236.0,2.0,,24.0,"19.397693,-99.172981",19.397693,-99.172981,19.397354
502,28,3,La Casa de los Güeros,19.39782,-99.173243,Whisky Bar,13024.0,3.0,,25.0,"19.397693,-99.172981",19.397693,-99.172981,19.39782
503,8,11,Tacos Puente de la Morena,19.398693,-99.183515,Taco Restaurant,13306.0,1.0,,48.0,"19.398946,-99.183254",19.398946,-99.183254,19.398693
504,1,22,KFC,19.397309,-99.16476,Fast Food Restaurant,13145.0,1.0,5.2,17.0,"19.397373,-99.164598",19.397373,-99.164598,19.397309
505,1,22,Tacos Nice,19.397188,-99.164651,Taco Restaurant,13306.0,1.0,,21.0,"19.397373,-99.164598",19.397373,-99.164598,19.397188
506,1,22,La Casa del Buen Sazón,19.397583,-99.164724,Mexican Restaurant,13303.0,1.0,,29.0,"19.397373,-99.164598",19.397373,-99.164598,19.397583
507,1,22,El Libanes,19.397816,-99.16463,Eastern European Restaurant,13139.0,2.0,7.7,41.0,"19.397373,-99.164598",19.397373,-99.164598,19.397816
508,1,22,Pizza Hut,19.397201,-99.164394,Pizzeria,13064.0,1.0,5.8,57.0,"19.397373,-99.164598",19.397373,-99.164598,19.397201
509,1,22,Comedor AXA,19.397444,-99.165059,Mexican Restaurant,13303.0,1.0,,70.0,"19.397373,-99.164598",19.397373,-99.164598,19.397444
510,11,4,Triángulo de las Vergudas,19.396545,-99.160807,Deli,13039.0,1.0,,7.0,"19.396513,-99.160924",19.396513,-99.160924,19.396545
511,11,4,Súper Tacos de Guisado,19.396638,-99.161364,Taco Restaurant,13306.0,1.0,,48.0,"19.396513,-99.160924",19.396513,-99.160924,19.396638
512,26,13,El Castillo del Quijote,19.393647,-99.171572,Mexican Restaurant,13303.0,1.0,6.7,16.0,"19.393832,-99.171466",19.393832,-99.171466,19.393647
513,26,13,Antojitos Lupita,19.393936,-99.171344,Taco Restaurant,13306.0,1.0,,17.0,"19.393832,-99.171466",19.393832,-99.171466,19.393936
514,26,13,Tabe-ya,19.393752,-99.171292,Cantonese Restaurant,13102.0,,,20.0,"19.393832,-99.171466",19.393832,-99.171466,19.393752
515,26,13,Quesadillas Magdalena,19.393869,-99.171037,Mexican Restaurant,13303.0,1.0,,21.0,"19.393832,-99.171466",19.393832,-99.171466,19.393869
516,26,13,Restaurante Don Quijote,19.393679,-99.171344,Restaurant,13065.0,2.0,,21.0,"19.393832,-99.171466",19.393832,-99.171466,19.393679
517,26,13,Brazzero,19.393647,-99.171572,Restaurant,13065.0,2.0,,30.0,"19.393832,-99.171466",19.393832,-99.171466,19.393647
518,26,13,Tacos de Cortes los Explosiboss,19.393498,-99.171148,BBQ Joint,13026.0,2.0,8.2,39.0,"19.393832,-99.171466",19.393832,-99.171466,19.393498
519,26,13,Gorditas el Collarin,19.393608,-99.171155,Belgian Restaurant,13077.0,,,40.0,"19.393832,-99.171466",19.393832,-99.171466,19.393608
520,26,13,Moba's Café,19.393783,-99.171871,Café,13034.0,1.0,8.3,47.0,"19.393832,-99.171466",19.393832,-99.171466,19.393783
521,26,13,"Taqueria ""Soto""",19.393811,-99.171804,Taco Restaurant,13306.0,1.0,,47.0,"19.393832,-99.171466",19.393832,-99.171466,19.393811
522,26,13,Esquina Gourmet,19.393498,-99.171148,Fast Food Restaurant,13145.0,1.0,,47.0,"19.393832,-99.171466",19.393832,-99.171466,19.393498
523,17,10,Salon Mixtecas,19.395066,-99.17316,Hotel Bar,13013.0,3.0,,17.0,"19.394842,-99.173025",19.394842,-99.173025,19.395066
524,17,10,Bambata Loreto,19.394997,-99.173169,Dive Bar,13010.0,1.0,6.9,18.0,"19.394842,-99.173025",19.394842,-99.173025,19.394997
525,17,10,IHOP WTC,19.394626,-99.173281,Restaurant,13065.0,,,36.0,"19.394842,-99.173025",19.394842,-99.173025,19.394626
526,17,10,Paparrilla,19.394786,-99.173401,Restaurant,13065.0,2.0,,39.0,"19.394842,-99.173025",19.394842,-99.173025,19.394786
527,17,10,Sitio Cafe,19.395023,-99.173419,Coffee Shop,13035.0,1.0,7.6,43.0,"19.394842,-99.173025",19.394842,-99.173025,19.395023
528,17,10,P.F. Chang's China Bistro,19.394463,-99.173049,Chinese Restaurant,13099.0,2.0,8.5,49.0,"19.394842,-99.173025",19.394842,-99.173025,19.394463
529,25,10,Puerto Getaria,19.393903,-99.175655,Spanish Restaurant,13345.0,2.0,8.5,3.0,"19.393699,-99.175664",19.393699,-99.175664,19.393903
530,25,10,Don Tacho,19.393615,-99.175883,Mexican Restaurant,13303.0,1.0,,11.0,"19.393699,-99.175664",19.393699,-99.175664,19.393615
531,25,10,Tacos los Barriles,19.393585,-99.175719,Taco Restaurant,13306.0,1.0,,13.0,"19.393699,-99.175664",19.393699,-99.175664,19.393585
532,25,10,Fonda Don Tacho,19.393776,-99.175789,Mexican Restaurant,13303.0,1.0,,15.0,"19.393699,-99.175664",19.393699,-99.175664,19.393776
533,25,10,"Hamburguesas ""Hamburguesas""",19.393587,-99.17595,American Restaurant,13068.0,2.0,,25.0,"19.393699,-99.175664",19.393699,-99.175664,19.393587
534,25,10,"Tacos de Cochinita ""Los Barriles""",19.393546,-99.175892,Taco Restaurant,13306.0,1.0,,36.0,"19.393699,-99.175664",19.393699,-99.175664,19.393546
535,25,10,Salpav,19.393921,-99.175967,Restaurant,13065.0,,,40.0,"19.393699,-99.175664",19.393699,-99.175664,19.393921
536,25,10,Le Gourmet,19.394,-99.175579,French Restaurant,13148.0,3.0,6.9,44.0,"19.393699,-99.175664",19.393699,-99.175664,19.394
537,25,10,La Terraza World Trade Center,19.393454,-99.175277,Restaurant,13065.0,2.0,5.3,48.0,"19.393699,-99.175664",19.393699,-99.175664,19.393454
538,25,10,Corte y Norte,19.3936,-99.176075,BBQ Joint,13026.0,2.0,7.5,59.0,"19.393699,-99.175664",19.393699,-99.175664,19.3936
539,25,10,Heineken Bar,19.39348,-99.175267,Bar,13003.0,2.0,6.7,61.0,"19.393699,-99.175664",19.393699,-99.175664,19.39348
540,26,1,Don Tacho,19.393615,-99.175883,Mexican Restaurant,13303.0,1.0,,6.0,"19.393701,-99.175834",19.393701,-99.175834,19.393615
541,26,1,Fonda Don Tacho,19.393776,-99.175789,Mexican Restaurant,13303.0,1.0,,9.0,"19.393701,-99.175834",19.393701,-99.175834,19.393776
542,26,1,Tacos los Barriles,19.393585,-99.175719,Taco Restaurant,13306.0,1.0,,17.0,"19.393701,-99.175834",19.393701,-99.175834,19.393585
543,26,1,Puerto Getaria,19.393903,-99.175655,Spanish Restaurant,13345.0,2.0,8.5,18.0,"19.393701,-99.175834",19.393701,-99.175834,19.393903
544,26,1,"Hamburguesas ""Hamburguesas""",19.393587,-99.17595,American Restaurant,13068.0,2.0,,18.0,"19.393701,-99.175834",19.393701,-99.175834,19.393587
545,26,1,Salpav,19.393921,-99.175967,Restaurant,13065.0,,,28.0,"19.393701,-99.175834",19.393701,-99.175834,19.393921
546,26,1,"Tacos de Cochinita ""Los Barriles""",19.393546,-99.175892,Taco Restaurant,13306.0,1.0,,33.0,"19.393701,-99.175834",19.393701,-99.175834,19.393546
547,26,1,Corte y Norte,19.3936,-99.176075,BBQ Joint,13026.0,2.0,7.5,43.0,"19.393701,-99.175834",19.393701,-99.175834,19.3936
548,26,1,Filadelfia 109,19.393928,-99.176222,Bar,13003.0,2.0,,50.0,"19.393701,-99.175834",19.393701,-99.175834,19.393928
549,26,1,Le Gourmet,19.394,-99.175579,French Restaurant,13148.0,3.0,6.9,58.0,"19.393701,-99.175834",19.393701,-99.175834,19.394
550,21,6,Taqueria la Guadalupana,19.392606,-99.183805,Taco Restaurant,13306.0,,,7.0,"19.392634,-99.183737",19.392634,-99.183737,19.392606
551,21,6,Chapacuafish,19.392962,-99.183885,Seafood Restaurant,13338.0,3.0,7.6,21.0,"19.392634,-99.183737",19.392634,-99.183737,19.392962
552,21,6,Panaderia San Pedro,19.392525,-99.183689,Deli,13039.0,1.0,,24.0,"19.392634,-99.183737",19.392634,-99.183737,19.392525
553,21,6,Queen Burgers,19.392429,-99.184013,Burger Joint,13031.0,1.0,6.3,36.0,"19.392634,-99.183737",19.392634,-99.183737,19.392429
554,21,6,Pedatlon,19.392603,-99.183284,Speakeasy,13021.0,3.0,,47.0,"19.392634,-99.183737",19.392634,-99.183737,19.392603
555,17,9,Fisher‘S,19.391789,-99.173399,Restaurant,13065.0,2.0,,33.0,"19.391472,-99.1736",19.391472,-99.1736,19.391789
556,17,9,Sushi Roll,19.391487,-99.173502,Sushi Restaurant,13276.0,2.0,8.5,50.0,"19.391472,-99.1736",19.391472,-99.1736,19.391487
557,14,5,Frida,19.391014,-99.159441,Bistro,13027.0,,,32.0,"19.391323,-99.15936",19.391323,-99.15936,19.391014
558,14,5,Tacos Manolo narvarte poniente,19.391056,-99.159183,Restaurant,13065.0,,,34.0,"19.391323,-99.15936",19.391323,-99.15936,19.391056
559,14,5,Tacos Manolo,19.391056,-99.159183,Pastry Shop,13047.0,,,34.0,"19.391323,-99.15936",19.391323,-99.15936,19.391056
560,12,3,China Inn Napoles,19.388659,-99.177672,Chinese Restaurant,13099.0,1.0,5.8,18.0,"19.38885,-99.17772",19.38885,-99.17772,19.388659
561,12,3,Jardin China,19.389139,-99.177609,Asian Restaurant,13072.0,2.0,,20.0,"19.38885,-99.17772",19.38885,-99.17772,19.389139
562,12,3,Giancarlo's Pizza,19.388836,-99.178028,Italian Restaurant,13236.0,2.0,7.0,21.0,"19.38885,-99.17772",19.38885,-99.17772,19.388836
563,12,3,"Nonsolo, Nápoles",19.388659,-99.177672,Italian Restaurant,13236.0,,,21.0,"19.38885,-99.17772",19.38885,-99.17772,19.388659
564,12,3,Big Daddy,19.389234,-99.17785,Hot Dog Joint,13058.0,1.0,,27.0,"19.38885,-99.17772",19.38885,-99.17772,19.389234
565,12,3,Satoshi - Napoles,19.388502,-99.177931,Japanese Restaurant,13263.0,2.0,6.8,32.0,"19.38885,-99.17772",19.38885,-99.17772,19.388502
566,12,3,Moronas Cafe,19.388617,-99.17793,Coffee Shop,13035.0,1.0,7.2,40.0,"19.38885,-99.17772",19.38885,-99.17772,19.388617
567,12,3,The Coffee Company,19.388589,-99.177997,Café,13034.0,,,41.0,"19.38885,-99.17772",19.38885,-99.17772,19.388589
568,18,1,Terraza Antonella,19.389503,-99.182477,Gastropub,13057.0,3.0,,21.0,"19.389358,-99.182606",19.389358,-99.182606,19.389503
569,18,1,El Rincón de San Pedro,19.389487,-99.182566,Taco Restaurant,13306.0,1.0,6.7,23.0,"19.389358,-99.182606",19.389358,-99.182606,19.389487
570,18,1,The Beer Company,19.389241,-99.182535,Beer Bar,13006.0,2.0,8.0,24.0,"19.389358,-99.182606",19.389358,-99.182606,19.389241
571,18,1,Teotlalli,19.389471,-99.182391,Fast Food Restaurant,13145.0,,,25.0,"19.389358,-99.182606",19.389358,-99.182606,19.389471
572,20,11,El gallito,19.386751,-99.173734,Taco Restaurant,13306.0,1.0,,36.0,"19.387003,-99.173504",19.387003,-99.173504,19.386751
573,20,11,NonNsolo,19.386925,-99.173085,Italian Restaurant,13236.0,2.0,,57.0,"19.387003,-99.173504",19.387003,-99.173504,19.386925
574,20,11,Miss Jochito,19.386581,-99.173447,Beer Bar,13006.0,,8.1,65.0,"19.387003,-99.173504",19.387003,-99.173504,19.386581
575,18,1,Tianguis de los miércoles acá por la chamba,19.384937,-99.166986,Mexican Restaurant,13303.0,1.0,,11.0,"19.384849,-99.16704",19.384849,-99.16704,19.384937
576,18,1,Comidonga,19.384527,-99.166813,Restaurant,13065.0,2.0,,27.0,"19.384849,-99.16704",19.384849,-99.16704,19.384527
577,18,1,Mixiotes Mercado San Borja,19.384943,-99.166625,Middle Eastern Restaurant,13309.0,2.0,,44.0,"19.384849,-99.16704",19.384849,-99.16704,19.384943
578,10,1,Comal de barro,19.425666,-99.204143,Mexican Restaurant,13303.0,1.0,7.3,28.0,"19.425905,-99.204236",19.425905,-99.204236,19.425666
579,10,1,Verde-Deli,19.425864,-99.203908,Fast Food Restaurant,13145.0,1.0,6.6,28.0,"19.425905,-99.204236",19.425905,-99.204236,19.425864
580,10,1,Hattori Sushi,19.425835,-99.204538,Sushi Restaurant,13276.0,2.0,,32.0,"19.425905,-99.204236",19.425905,-99.204236,19.425835
581,10,1,Daisuki Lomas,19.425697,-99.204309,Japanese Restaurant,13263.0,2.0,,32.0,"19.425905,-99.204236",19.425905,-99.204236,19.425697
582,10,1,Tacos Tulum,19.425642,-99.204065,Yucatecan Restaurant,13308.0,,6.9,34.0,"19.425905,-99.204236",19.425905,-99.204236,19.425642
583,10,1,Plaza el Punto,19.425571,-99.204133,Fast Food Restaurant,13145.0,1.0,6.7,38.0,"19.425905,-99.204236",19.425905,-99.204236,19.425571
584,10,1,Be Grill,19.425795,-99.203917,Restaurant,13065.0,2.0,6.2,39.0,"19.425905,-99.204236",19.425905,-99.204236,19.425795
585,15,2,Las Flautas,19.426906,-99.212831,Mexican Restaurant,13303.0,1.0,5.8,13.0,"19.42703,-99.212845",19.42703,-99.212845,19.426906
586,15,2,"Las Flautas, Prado Norte",19.426908,-99.213155,Restaurant,13065.0,,,35.0,"19.42703,-99.212845",19.42703,-99.212845,19.426908
587,15,2,La Bohême,19.426962,-99.213261,Diner,13049.0,1.0,5.7,44.0,"19.42703,-99.212845",19.42703,-99.212845,19.426962
588,23,8,Tacos Volcan,19.42929,-99.207071,Taco Restaurant,13306.0,1.0,,5.0,"19.429243,-99.207267",19.429243,-99.207267,19.42929
589,23,8,Comida Japonesa,19.429112,-99.207031,Japanese Restaurant,13263.0,2.0,,15.0,"19.429243,-99.207267",19.429243,-99.207267,19.429112
590,23,8,Bottega Culinaria Lomas,19.42929,-99.207071,Deli,13039.0,1.0,7.8,17.0,"19.429243,-99.207267",19.429243,-99.207267,19.42929
591,23,8,Chinese Dinning Room,19.42929,-99.207071,Chinese Restaurant,13099.0,1.0,,24.0,"19.429243,-99.207267",19.429243,-99.207267,19.42929
592,23,8,Los Bicitacos,19.429233,-99.207518,Mexican Restaurant,13303.0,1.0,,26.0,"19.429243,-99.207267",19.429243,-99.207267,19.429233
593,23,8,Sakesushibar,19.42929,-99.207573,Sushi Restaurant,13276.0,2.0,7.9,32.0,"19.429243,-99.207267",19.429243,-99.207267,19.42929
594,23,8,Tacos el Suaderito,19.42899,-99.20746,Taco Restaurant,13306.0,1.0,,34.0,"19.429243,-99.207267",19.429243,-99.207267,19.42899
595,23,8,Pasaje Godinez,19.429112,-99.207031,Southern / Soul Food Restaurant,13344.0,1.0,,40.0,"19.429243,-99.207267",19.429243,-99.207267,19.429112
596,23,8,Le Rue Des Salmonelle,19.429084,-99.207098,Bistro,13027.0,,,44.0,"19.429243,-99.207267",19.429243,-99.207267,19.429084
597,29,6,McDonald's,19.437226,-99.208113,Burger Joint,13031.0,3.0,,30.0,"19.437014,-99.207932",19.437014,-99.207932,19.437226
598,29,6,El pozo del gozo,19.436677,-99.20781,BBQ Joint,13026.0,2.0,,39.0,"19.437014,-99.207932",19.437014,-99.207932,19.436677
599,29,6,La Destileria,19.436702,-99.207813,Mexican Restaurant,13303.0,1.0,7.2,42.0,"19.437014,-99.207932",19.437014,-99.207932,19.436702
600,25,6,El Buen Sazón,19.440053,-99.209593,Mexican Restaurant,13303.0,1.0,,62.0,"19.440106,-99.210031",19.440106,-99.210031,19.440053
601,15,0,La Virgencita,19.442617,-99.200261,Mexican Restaurant,13303.0,1.0,,35.0,"19.442421,-99.199838",19.442421,-99.199838,19.442617
602,15,0,Pizza & Pasta,19.442794,-99.199677,Italian Restaurant,13236.0,2.0,,44.0,"19.442421,-99.199838",19.442421,-99.199838,19.442794
603,26,1,Chuy's Batcave,19.440292,-99.186435,Speakeasy,13021.0,3.0,,48.0,"19.440399,-99.186784",19.440399,-99.186784,19.440292
604,16,7,Cafeteria,19.43792,-99.177115,Diner,13049.0,1.0,,10.0,"19.437667,-99.17711",19.437667,-99.17711,19.43792
605,16,7,Cafeteri Arestaurante Best,19.438002,-99.177231,Café,13034.0,1.0,6.1,13.0,"19.437667,-99.17711",19.437667,-99.17711,19.438002
606,16,7,Mixiotes,19.437577,-99.177211,Taco Restaurant,13306.0,1.0,,14.0,"19.437667,-99.17711",19.437667,-99.17711,19.437577
607,16,7,Garnachas Bahia de Ballenas,19.437441,-99.176861,Mexican Restaurant,13303.0,1.0,,19.0,"19.437667,-99.17711",19.437667,-99.17711,19.437441
608,16,7,Birria Santa Barbara,19.437414,-99.176928,Fast Food Restaurant,13145.0,1.0,8.4,20.0,"19.437667,-99.17711",19.437667,-99.17711,19.437414
609,16,7,Tacos el Corte No 7,19.437771,-99.176691,Taco Restaurant,13306.0,1.0,,22.0,"19.437667,-99.17711",19.437667,-99.17711,19.437771
610,16,7,Il Baffetto,19.437441,-99.176861,Italian Restaurant,13236.0,2.0,5.8,25.0,"19.437667,-99.17711",19.437667,-99.17711,19.437441
611,16,7,Super Tortas,19.437866,-99.176932,Sandwich Restaurant,13334.0,1.0,,25.0,"19.437667,-99.17711",19.437667,-99.17711,19.437866
612,16,7,El Corte N°7,19.437866,-99.176932,Taco Restaurant,13306.0,1.0,,25.0,"19.437667,-99.17711",19.437667,-99.17711,19.437866
613,16,7,Cevicheve Sinaloense,19.437515,-99.17692,Restaurant,13065.0,2.0,,26.0,"19.437667,-99.17711",19.437667,-99.17711,19.437515
614,16,7,I Baffi,19.437441,-99.176861,Italian Restaurant,13236.0,2.0,6.3,27.0,"19.437667,-99.17711",19.437667,-99.17711,19.437441
615,16,7,Las Buenas Kekas,19.437446,-99.17697,Burrito Restaurant,13305.0,1.0,,28.0,"19.437667,-99.17711",19.437667,-99.17711,19.437446
616,16,7,Tacos el Chino,19.437441,-99.176861,Mexican Restaurant,13303.0,1.0,,29.0,"19.437667,-99.17711",19.437667,-99.17711,19.437441
617,16,7,El Rincón de Boca,19.437771,-99.176691,Seafood Restaurant,13338.0,3.0,,30.0,"19.437667,-99.17711",19.437667,-99.17711,19.437771
618,16,7,Cocina Elenita,19.437771,-99.176691,Restaurant,13065.0,2.0,,32.0,"19.437667,-99.17711",19.437667,-99.17711,19.437771
619,16,7,Sushingao,19.437593,-99.1768,Sushi Restaurant,13276.0,2.0,,33.0,"19.437667,-99.17711",19.437667,-99.17711,19.437593
620,16,7,Tacos Tulum,19.437333,-99.177016,Taco Restaurant,13306.0,1.0,6.7,38.0,"19.437667,-99.17711",19.437667,-99.17711,19.437333
621,16,7,"Pollos al carbón ""Forever Alon""",19.437771,-99.176691,Fried Chicken Joint,13055.0,1.0,,38.0,"19.437667,-99.17711",19.437667,-99.17711,19.437771
622,16,7,Los Burritos del Richard,19.437771,-99.176691,Burrito Restaurant,13305.0,1.0,,43.0,"19.437667,-99.17711",19.437667,-99.17711,19.437771
623,16,7,Cafe Punta del Cielo,19.437771,-99.176691,Coffee Shop,13035.0,,,45.0,"19.437667,-99.17711",19.437667,-99.17711,19.437771
624,16,7,El Rincón de Moga,19.437703,-99.1767,Restaurant,13065.0,2.0,,46.0,"19.437667,-99.17711",19.437667,-99.17711,19.437703
625,16,7,La parrillada argentina,19.437771,-99.176691,Argentinian Restaurant,13070.0,2.0,,46.0,"19.437667,-99.17711",19.437667,-99.17711,19.437771
626,16,7,Fonda la Naranja,19.438031,-99.176847,Restaurant,13065.0,2.0,,60.0,"19.437667,-99.17711",19.437667,-99.17711,19.438031
627,18,5,"Tacos ""El Güero""",19.439229,-99.181105,Taco Restaurant,13306.0,1.0,8.3,4.0,"19.439249,-99.181065",19.439249,-99.181065,19.439229
628,18,5,Los Muertacos,19.439328,-99.181239,Taco Restaurant,13306.0,1.0,,15.0,"19.439249,-99.181065",19.439249,-99.181065,19.439328
629,18,5,Gorditas Doña Irma,19.439287,-99.181181,Taco Restaurant,13306.0,1.0,,20.0,"19.439249,-99.181065",19.439249,-99.181065,19.439287
630,18,5,Don Capitan,19.438861,-99.180922,Mexican Restaurant,13303.0,1.0,6.7,45.0,"19.439249,-99.181065",19.439249,-99.181065,19.438861
631,16,7,Micheladas Chalco,19.444721,-99.179406,Beer Garden,13007.0,1.0,,41.0,"19.444433,-99.179664",19.444433,-99.179664,19.444721
632,29,6,J&B The City Remix,19.422778,-99.150529,Whisky Bar,13024.0,3.0,,33.0,"19.422392,-99.150358",19.422392,-99.150358,19.422778
633,29,6,Estacion Indianilla,19.422628,-99.150422,Art Museum,10028.0,,8.0,40.0,"19.422392,-99.150358",19.422392,-99.150358,19.422628
634,29,6,Hotel Arena,19.422339,-99.15065,Hotel Bar,13013.0,3.0,,42.0,"19.422392,-99.150358",19.422392,-99.150358,19.422339
635,19,4,Elroffpool,19.392418,-99.1642,Whisky Bar,13024.0,3.0,,33.0,"19.392195,-99.163987",19.392195,-99.163987,19.392418
636,17,10,Le Petit Chef,19.418523,-99.17446,Theme Restaurant,13354.0,,6.7,40.0,"19.418141,-99.174709",19.418141,-99.174709,19.418523
637,17,10,Chinaloa,19.418483,-99.174402,Asian Restaurant,13072.0,2.0,7.1,41.0,"19.418141,-99.174709",19.418141,-99.174709,19.418483
638,17,10,Barra Nipona,19.418476,-99.174448,Japanese Restaurant,13263.0,2.0,,43.0,"19.418141,-99.174709",19.418141,-99.174709,19.418476
639,17,10,Zoku By Hiroshi,19.418455,-99.174469,Sushi Restaurant,13276.0,,,43.0,"19.418141,-99.174709",19.418141,-99.174709,19.418455
640,17,10,Mexsi Bocu,19.418455,-99.174469,Bistro,13027.0,,,43.0,"19.418141,-99.174709",19.418141,-99.174709,19.418455
641,17,10,Zoku por Hiroshi,19.418483,-99.174402,Sushi Restaurant,13276.0,,,49.0,"19.418141,-99.174709",19.418141,-99.174709,19.418483
642,20,15,La Taberna del Chanclas,19.407269,-99.171879,Tapas Restaurant,13347.0,3.0,8.3,7.0,"19.407233,-99.172131",19.407233,-99.172131,19.407269
643,20,15,Hamburguesas HM,19.407062,-99.172223,Burger Joint,13031.0,1.0,7.5,8.0,"19.407233,-99.172131",19.407233,-99.172131,19.407062
644,20,15,Café Emir,19.407228,-99.171821,Café,13034.0,1.0,6.9,21.0,"19.407233,-99.172131",19.407233,-99.172131,19.407228
645,20,15,Antojitos Yola,19.407515,-99.17191,Mexican Restaurant,13303.0,1.0,7.2,22.0,"19.407233,-99.172131",19.407233,-99.172131,19.407515
646,20,15,Balboa Pizzeria,19.407419,-99.172264,Pizzeria,13064.0,1.0,8.2,24.0,"19.407233,-99.172131",19.407233,-99.172131,19.407419
647,20,15,Panga,19.407584,-99.171901,Seafood Restaurant,13338.0,3.0,,28.0,"19.407233,-99.172131",19.407233,-99.172131,19.407584
648,20,15,Gigolo Pizza,19.407255,-99.171754,Pizzeria,13064.0,1.0,,32.0,"19.407233,-99.172131",19.407233,-99.172131,19.407255
649,20,15,Los Originales Bernardinos,19.407497,-99.172324,Taco Restaurant,13306.0,1.0,,35.0,"19.407233,-99.172131",19.407233,-99.172131,19.407497
650,20,15,TOTÓ Condesa,19.407417,-99.171859,Gastropub,13057.0,3.0,,35.0,"19.407233,-99.172131",19.407233,-99.172131,19.407417
651,20,15,Las Memorables,19.406924,-99.172241,Burger Joint,13031.0,,,36.0,"19.407233,-99.172131",19.407233,-99.172131,19.406924
652,20,15,Barra Baja,19.407431,-99.172428,Seafood Restaurant,13338.0,3.0,7.1,39.0,"19.407233,-99.172131",19.407233,-99.172131,19.407431
653,20,15,El Congal del Cazador,19.406965,-99.172299,Lounge,13016.0,3.0,,39.0,"19.407233,-99.172131",19.407233,-99.172131,19.406965
654,20,15,Hamburguesas Memorables condesa,19.407556,-99.171968,Restaurant,13065.0,,,39.0,"19.407233,-99.172131",19.407233,-99.172131,19.407556
655,20,15,Top Beer,19.407403,-99.172495,Bar,13003.0,2.0,,42.0,"19.407233,-99.172131",19.407233,-99.172131,19.407403
656,20,15,El Trapiche,19.407375,-99.172562,Restaurant,13065.0,,,47.0,"19.407233,-99.172131",19.407233,-99.172131,19.407375
657,14,17,Quesadillas Doña Pelos,19.43949,-99.160304,Taco Restaurant,13306.0,1.0,,28.0,"19.439347,-99.160074",19.439347,-99.160074,19.43949
658,14,17,Maria Conesa,19.439335,-99.160205,Argentinian Restaurant,13070.0,2.0,5.8,38.0,"19.439347,-99.160074",19.439347,-99.160074,19.439335
659,20,3,Tacos el Machete de Oro,19.425277,-99.175223,Taco Restaurant,13306.0,1.0,,4.0,"19.425355,-99.17515",19.425355,-99.17515,19.425277
660,20,3,Sonsacadero,19.425351,-99.175089,Taco Restaurant,13306.0,1.0,,6.0,"19.425355,-99.17515",19.425355,-99.17515,19.425351
661,20,3,Choripanes Cara de Perro,19.42548,-99.175151,Deli,13039.0,1.0,,13.0,"19.425355,-99.17515",19.425355,-99.17515,19.42548
662,20,3,La Cochinita de la Condesa,19.425346,-99.175214,Fast Food Restaurant,13145.0,1.0,7.9,14.0,"19.425355,-99.17515",19.425355,-99.17515,19.425346
663,20,3,Caldos Ánimo,19.425127,-99.175116,Mexican Restaurant,13303.0,1.0,7.9,21.0,"19.425355,-99.17515",19.425355,-99.17515,19.425127
664,20,3,Sushi Zen - Tamesis,19.425346,-99.175214,Japanese Restaurant,13263.0,2.0,6.6,23.0,"19.425355,-99.17515",19.425355,-99.17515,19.425346
665,20,3,Day Light Salads,19.425318,-99.175281,Vegan and Vegetarian Restaurant,13377.0,2.0,6.4,23.0,"19.425355,-99.17515",19.425355,-99.17515,19.425318
666,20,3,Taqueria el Champion,19.425589,-99.175156,Mexican Restaurant,13303.0,1.0,,26.0,"19.425355,-99.17515",19.425355,-99.17515,19.425589
667,20,3,Hamburguesas Memorables cuauhtemoc,19.425331,-99.175406,Burger Joint,13031.0,,,26.0,"19.425355,-99.17515",19.425355,-99.17515,19.425331
668,20,3,The Best Tacos de Guisado In Town,19.425127,-99.175116,Taco Restaurant,13306.0,1.0,,33.0,"19.425355,-99.17515",19.425355,-99.17515,19.425127
669,20,3,Green Spot,19.425618,-99.175362,Salad Restaurant,13332.0,1.0,,36.0,"19.425355,-99.17515",19.425355,-99.17515,19.425618
670,20,3,"Antojitos ""La Michoacana""",19.425278,-99.175508,Mexican Restaurant,13303.0,1.0,,38.0,"19.425355,-99.17515",19.425355,-99.17515,19.425278
671,20,3,Taqueria el Champion,19.425716,-99.175102,Taco Restaurant,13306.0,,,40.0,"19.425355,-99.17515",19.425355,-99.17515,19.425716
672,9,6,"Bistrot 750. Vinos, Baguettes y Tapas.",19.430868,-99.16701,Spanish Restaurant,13345.0,2.0,,10.0,"19.430963,-99.166986",19.430963,-99.166986,19.430868
673,9,6,Rio Diecisiete,19.431151,-99.166978,Restaurant,13065.0,2.0,6.2,17.0,"19.430963,-99.166986",19.430963,-99.166986,19.431151
674,9,6,Sushi Roma.Ito,19.430883,-99.166832,Sushi Restaurant,13276.0,2.0,,18.0,"19.430963,-99.166986",19.430963,-99.166986,19.430883
675,9,6,Tacos Dorados,19.430768,-99.166965,Taco Restaurant,13306.0,1.0,,26.0,"19.430963,-99.166986",19.430963,-99.166986,19.430768
676,9,6,La Raclette Coffee,19.431235,-99.166777,Coffee Shop,13035.0,,,37.0,"19.430963,-99.166986",19.430963,-99.166986,19.431235
677,5,10,Chokis cuauhtemoc,19.432339,-99.161755,Restaurant,13065.0,,,14.0,"19.432223,-99.161686",19.432223,-99.161686,19.432339
678,5,10,Cantina Argentina,19.432242,-99.161831,Argentinian Restaurant,13070.0,2.0,,21.0,"19.432223,-99.161686",19.432223,-99.161686,19.432242
679,5,10,Taqueria la Michoacana,19.432309,-99.161359,Taco Restaurant,13306.0,1.0,,35.0,"19.432223,-99.161686",19.432223,-99.161686,19.432309
680,5,10,Los Pibes del Grill,19.431968,-99.161867,Argentinian Restaurant,13070.0,2.0,7.9,40.0,"19.432223,-99.161686",19.432223,-99.161686,19.431968
681,5,10,Esquina Berenjena,19.431968,-99.161867,Salad Restaurant,13332.0,1.0,7.3,40.0,"19.432223,-99.161686",19.432223,-99.161686,19.431968
682,5,10,Nutri Ensaladas,19.432325,-99.16208,Salad Restaurant,13332.0,1.0,,42.0,"19.432223,-99.161686",19.432223,-99.161686,19.432325
683,5,10,Los Chocko´s,19.432337,-99.162072,Coffee Shop,13035.0,1.0,6.0,63.0,"19.432223,-99.161686",19.432223,-99.161686,19.432337
684,2,33,Hamburguesita de Carrito,19.424506,-99.163288,Burger Joint,13031.0,1.0,,13.0,"19.424558,-99.163518",19.424558,-99.163518,19.424506
685,2,33,Hamburguesas para Bajar la Peda,19.424551,-99.163683,Burger Joint,13031.0,1.0,,17.0,"19.424558,-99.163518",19.424558,-99.163518,19.424551
686,7,23,Zona de comida zoologico de chapultepec,19.425288,-99.18523,Fast Food Restaurant,13145.0,1.0,,56.0,"19.424858,-99.185181",19.424858,-99.185181,19.425288
687,34,1,La Papa del Valle,19.375304,-99.163715,Mediterranean Restaurant,13302.0,2.0,,18.0,"19.375397,-99.163778",19.375397,-99.163778,19.375304
688,34,1,Quesadillas de Leidyng,19.375236,-99.163724,Mexican Restaurant,13303.0,1.0,,28.0,"19.375397,-99.163778",19.375397,-99.163778,19.375236
689,34,1,Burger King,19.375605,-99.163929,Burger Joint,13031.0,1.0,6.0,33.0,"19.375397,-99.163778",19.375397,-99.163778,19.375605
690,34,1,The House Of Vice,19.375743,-99.163594,Gay Bar,13011.0,2.0,,35.0,"19.375397,-99.163778",19.375397,-99.163778,19.375743
691,34,1,Gorditas y Tlacoyos Lady,19.37514,-99.1638,Taco Restaurant,13306.0,1.0,,37.0,"19.375397,-99.163778",19.375397,-99.163778,19.37514
692,19,0,D2A3 Caídas,19.382103,-99.181057,Taco Restaurant,13306.0,1.0,,0.0,"19.382109,-99.181056",19.382109,-99.181056,19.382103
693,19,0,Carbon 4 Bikers,19.382123,-99.181041,Sports Bar,13022.0,1.0,,2.0,"19.382109,-99.181056",19.382109,-99.181056,19.382123
694,19,0,Taberna el Colorín,19.382037,-99.181057,Seafood Restaurant,13338.0,3.0,,8.0,"19.382109,-99.181056",19.382109,-99.181056,19.382037
695,19,0,Harrison Tacos y Chelas,19.381885,-99.181128,Taco Restaurant,13306.0,1.0,,26.0,"19.382109,-99.181056",19.382109,-99.181056,19.381885
696,19,0,Tortas Puercas Rodin,19.381792,-99.180974,Deli,13039.0,1.0,,36.0,"19.382109,-99.181056",19.382109,-99.181056,19.381792
697,19,0,El Viejo Roodin,19.381737,-99.18112,Mexican Restaurant,13303.0,1.0,,41.0,"19.382109,-99.181056",19.382109,-99.181056,19.381737
698,19,0,Grado 23,19.381698,-99.18108,Seafood Restaurant,13338.0,3.0,,45.0,"19.382109,-99.181056",19.382109,-99.181056,19.381698
699,13,6,Tortas Pepe,19.381205,-99.186753,Mexican Restaurant,13303.0,1.0,,27.0,"19.381123,-99.18667",19.381123,-99.18667,19.381205
700,13,6,El Saguancito,19.380765,-99.186874,Mexican Restaurant,13303.0,1.0,,48.0,"19.381123,-99.18667",19.381123,-99.18667,19.380765
701,24,11,Tortas a un lado de Wal Mart,19.367982,-99.164801,Mexican Restaurant,13303.0,1.0,,23.0,"19.368107,-99.164376",19.368107,-99.164376,19.367982
702,24,11,Alitas Wal Mart,19.368372,-99.164378,Wings Joint,13388.0,1.0,,29.0,"19.368107,-99.164376",19.368107,-99.164376,19.368372
703,24,11,Hamburguesas Oliva,19.36788,-99.164558,Burger Joint,13031.0,1.0,,31.0,"19.368107,-99.164376",19.368107,-99.164376,19.36788
704,18,5,Restaurante Gastron las Delicias C,19.375434,-99.177819,Restaurant,13065.0,,,6.0,"19.375495,-99.177819",19.375495,-99.177819,19.375434
705,18,5,Deli Imperio,19.375749,-99.177841,Salad Restaurant,13332.0,1.0,6.4,17.0,"19.375495,-99.177819",19.375495,-99.177819,19.375749
706,18,5,Tamalitos y Tortas de Chilaquiles,19.37546,-99.178069,Sandwich Restaurant,13334.0,1.0,,28.0,"19.375495,-99.177819",19.375495,-99.177819,19.37546
707,18,5,El Depósito,19.375734,-99.178033,Brewery,13029.0,3.0,7.2,31.0,"19.375495,-99.177819",19.375495,-99.177819,19.375734
708,18,5,Bukenkha,19.375473,-99.178194,Asian Restaurant,13072.0,2.0,,36.0,"19.375495,-99.177819",19.375495,-99.177819,19.375473
709,18,5,Lucca Pizza,19.375914,-99.177756,Pizzeria,13064.0,1.0,6.9,38.0,"19.375495,-99.177819",19.375495,-99.177819,19.375914
710,18,5,La Chopería,19.375227,-99.178163,Beer Garden,13007.0,1.0,5.9,40.0,"19.375495,-99.177819",19.375495,-99.177819,19.375227
711,18,5,Los Bolillotes,19.375108,-99.17773,Taco Restaurant,13306.0,1.0,,43.0,"19.375495,-99.177819",19.375495,-99.177819,19.375108
712,18,5,Tacos de Pollo Dorados y de Guisado,19.375775,-99.178091,Fried Chicken Joint,13055.0,1.0,,43.0,"19.375495,-99.177819",19.375495,-99.177819,19.375775
713,18,5,Sukiya,19.375775,-99.178091,Japanese Restaurant,13263.0,2.0,6.9,47.0,"19.375495,-99.177819",19.375495,-99.177819,19.375775
714,18,5,Arepas & Bolillotes,19.375092,-99.177641,Arepa Restaurant,13069.0,1.0,,48.0,"19.375495,-99.177819",19.375495,-99.177819,19.375092
715,18,5,El Pobre Juan,19.375582,-99.17827,Taco Restaurant,13306.0,1.0,5.4,48.0,"19.375495,-99.177819",19.375495,-99.177819,19.375582
716,18,5,Carnitas Premium,19.375243,-99.177654,Taco Restaurant,13306.0,1.0,,50.0,"19.375495,-99.177819",19.375495,-99.177819,19.375243
717,18,5,La Comandancia Live,19.375858,-99.17789,Beer Bar,13006.0,,,52.0,"19.375495,-99.177819",19.375495,-99.177819,19.375858
718,21,2,La Gran Torta,19.385673,-99.183635,Mexican Restaurant,13303.0,1.0,,17.0,"19.385494,-99.183744",19.385494,-99.183744,19.385673
719,21,2,El Vergel,19.385451,-99.184171,Mexican Restaurant,13303.0,1.0,,37.0,"19.385494,-99.183744",19.385494,-99.183744,19.385451
720,21,2,La Doña de San Antonio,19.385304,-99.184149,Mexican Restaurant,13303.0,1.0,,47.0,"19.385494,-99.183744",19.385494,-99.183744,19.385304
721,26,9,Tacos Israel,19.372424,-99.164409,Taco Restaurant,13306.0,1.0,5.8,11.0,"19.372469,-99.164538",19.372469,-99.164538,19.372424
722,26,9,Pibil Mex,19.372874,-99.16473,Mexican Restaurant,13303.0,1.0,,39.0,"19.372469,-99.164538",19.372469,-99.164538,19.372874
723,26,9,Distribuidora Mueblera Milenio,19.372397,-99.164159,Restaurant,13065.0,,,40.0,"19.372469,-99.164538",19.372469,-99.164538,19.372397
724,26,9,"Amo Ato Pop, Coffee",19.372861,-99.164605,Restaurant,13065.0,,,44.0,"19.372469,-99.164538",19.372469,-99.164538,19.372861
725,7,4,Sushi Roll,19.367111,-99.170842,Sushi Restaurant,13276.0,2.0,8.4,30.0,"19.36715,-99.17055",19.36715,-99.17055,19.367111
726,7,4,Mejicaleria,19.366765,-99.170405,Bar,13003.0,2.0,,35.0,"19.36715,-99.17055",19.36715,-99.17055,19.366765
727,7,4,Emiklub,19.367428,-99.170786,Lounge,13016.0,3.0,,39.0,"19.36715,-99.17055",19.36715,-99.17055,19.367428
728,7,4,Billar Amores,19.367454,-99.170774,Sake Bar,13020.0,2.0,,41.0,"19.36715,-99.17055",19.36715,-99.17055,19.367454
729,26,5,El Puertito,19.369405,-99.179186,Seafood Restaurant,13338.0,3.0,,27.0,"19.36952,-99.179421",19.36952,-99.179421,19.369405
730,26,5,Las Quesadillas,19.369778,-99.17952,Taco Restaurant,13306.0,1.0,,30.0,"19.36952,-99.179421",19.36952,-99.179421,19.369778
731,26,5,"Tacos ""El Paisa""",19.369941,-99.179482,Taco Restaurant,13306.0,1.0,,47.0,"19.36952,-99.179421",19.36952,-99.179421,19.369941
732,20,3,Tortas Pepe,19.441101,-99.19577,Hot Dog Joint,13058.0,1.0,,6.0,"19.441123,-99.195857",19.441123,-99.195857,19.441101
733,20,3,Mundo Shisha,19.441245,-99.19603,Hookah Bar,13012.0,1.0,,22.0,"19.441123,-99.195857",19.441123,-99.195857,19.441245
734,19,11,Eclectic Bar,19.426971,-99.168441,Bar,13003.0,2.0,,30.0,"19.4267528,-99.16861944",19.4267528,-99.16861944,19.426971
735,19,11,Taquitos de Birria,19.427156,-99.168642,Taco Restaurant,13306.0,1.0,,30.0,"19.4267528,-99.16861944",19.4267528,-99.16861944,19.427156
736,19,11,Mallorca,19.426783,-99.169089,Restaurant,13065.0,2.0,7.9,49.0,"19.4267528,-99.16861944",19.4267528,-99.16861944,19.426783
737,18,17,Mas natural,19.41297,-99.17169,Restaurant,13065.0,2.0,,2.0,"19.41299,-99.171675",19.41299,-99.171675,19.41297
738,18,17,Azul Condesa,19.412793,-99.171536,Mexican Restaurant,13303.0,3.0,8.5,10.0,"19.41299,-99.171675",19.41299,-99.171675,19.412793
739,18,17,Puesto de hotchos,19.413107,-99.171875,Hot Dog Joint,13058.0,1.0,,12.0,"19.41299,-99.171675",19.41299,-99.171675,19.413107
