,POI_name,latitude,longitude,category_name,category_id,price,rating,distance,bike_ll
0,Cueva Colomba,19.43734,-99.137459,Bar,13003,2,6.1,13,"19.4374,-99.137571"
1,Tintico,19.43721,-99.137425,Coffee Shop,13035,1,7.6,16,"19.4374,-99.137571"
2,La Cueva Colomba,19.437141,-99.137434,Pub,13018,1,6.1,18,"19.4374,-99.137571"
3,Tintico Cafe & Galeria,19.43725,-99.137483,Café,13034,NaN,NaN,19,"19.4374,-99.137571"
4,Cantina Río de la Plata,19.437195,-99.137617,Beer Bar,13006,1,6.6,20,"19.4374,-99.137571"
5,"Los Tacos de Fonda Argentina, Centro Histórico",19.437262,-99.137925,BBQ Joint,13026,2,6.1,23,"19.4374,-99.137571"
6,Salon Beer,19.437126,-99.137626,Bar,13003,2,NaN,23,"19.4374,-99.137571"
7,El Pecado,19.43721,-99.137425,Dive Bar,13010,1,5.9,26,"19.4374,-99.137571"
8,Tacos liricos,19.437567,-99.137188,Mexican Restaurant,13303,1,NaN,30,"19.4374,-99.137571"
9,Manolo,19.437657,-99.137444,Diner,13049,1,NaN,31,"19.4374,-99.137571"
10,El Pixcuhuil,19.437674,-99.137871,Mexican Restaurant,13303,1,NaN,31,"19.4374,-99.137571"
11,El Enxebre,19.437262,-99.137925,Restaurant,13065,2,NaN,32,"19.4374,-99.137571"
12,El Otro Río,19.437155,-99.137242,Dive Bar,13010,2,6.0,34,"19.4374,-99.137571"
13,Marejada. Tacos de Pesca.,19.437674,-99.137871,Taco Restaurant,13306,1,8.3,39,"19.4374,-99.137571"
14,Bar la J,19.437125,-99.137943,Bar,13003,2,NaN,46,"19.4374,-99.137571"
15,HB Mex - Hamburguesas y Burritos,19.43783,-99.137618,Mexican Restaurant,13303,1,NaN,48,"19.4374,-99.137571"
16,Cantenario de la Plata,19.437126,-99.137626,Bar,13003,2,NaN,55,"19.4374,-99.137571"
17,Tortas la Españita,19.436439,-99.131445,Sandwich Restaurant,13334,1,NaN,4,"19.436531,-99.131497"
18,Salon Cantina España 25,19.436617,-99.131485,Bar,13003,2,7.6,15,"19.436531,-99.131497"
19,Taquería Tlaquepaque,19.436411,-99.131512,Taco Restaurant,13306,1,NaN,27,"19.436531,-99.131497"
20,Bubble Waffle Co. Centro Histórico,19.436372,-99.131137,Café,13034,1,NaN,49,"19.436531,-99.131497"
21,Salón España,19.436684,-99.131793,Bar,13003,2,NaN,203,"19.436531,-99.131497"
22,La Jaliciense centro de la ciudad de mexico area 2,19.436864,-99.13481,Restaurant,13065,NaN,NaN,13,"19.436741,-99.134811"
23,Quesadillas y tlacoyos en un zaguán,19.43689,-99.13506,Taco Restaurant,13306,1,NaN,43,"19.436741,-99.134811"
24,Museo de la Secretaría de Hacienda y Crédito Público,19.433658,-99.131113,Art Museum,10028,NaN,7.0,8,"19.433766,-99.130918"
25,El Antojo Comida de Autor,19.433591,-99.130805,Restaurant,13065,2,NaN,23,"19.433766,-99.130918"
26,Museo Tutankamón - Mexico,19.433934,-99.13076,Museum,10027,NaN,NaN,24,"19.433766,-99.130918"
27,Terraza Moneda,19.433605,-99.130613,Lounge,13016,3,NaN,25,"19.433766,-99.130918"
28,Señor Chicharron,19.430714,-99.13376,Salad Restaurant,13332,1,NaN,6,"19.430722,-99.133698"
29,Los Chicharrones de 20 Nov,19.430646,-99.133852,Fast Food Restaurant,13145,1,NaN,14,"19.430722,-99.133698"
30,La Casa del Chicharrón,19.430537,-99.133486,Botanero,13304,NaN,NaN,26,"19.430722,-99.133698"
31,Restaurante Sienra's,19.430419,-99.13365,"Cafes, Coffee, and Tea Houses",13032,1,6.5,34,"19.430722,-99.133698"
32,"Restaurante Palacio, Centro",19.431085,-99.133731,Restaurant,13065,2,7.9,35,"19.430722,-99.133698"
33,Viajes Palacio,19.431098,-99.133856,Restaurant,13065,NaN,NaN,42,"19.430722,-99.133698"
34,La Rinconada,19.429167,-99.13286,Mexican Restaurant,13303,1,NaN,10,"19.429189,-99.132759"
35,Restaurante Rinconada,19.429045,-99.133175,Mexican Restaurant,13303,2,NaN,44,"19.429189,-99.132759"
36,Museo de la Ciudad de México,19.429309,-99.132381,Museum,10027,1,8.7,52,"19.429189,-99.132759"
37,Chang Long,19.428479,-99.134073,Chinese Restaurant,13099,1,NaN,21,"19.428485,-99.1338"
38,Flor de Iguala,19.428452,-99.13414,Mexican Restaurant,13303,1,NaN,23,"19.428485,-99.1338"
39,El Buen Sazón,19.428755,-99.13372,Mexican Restaurant,13303,1,NaN,31,"19.428485,-99.1338"
40,Quesadillas Flor de Iguala,19.428503,-99.134128,Mexican Restaurant,13303,1,NaN,34,"19.428485,-99.1338"
41,Coffee Max Cafeteria Cibercafe,19.428806,-99.133736,Diner,13049,1,NaN,36,"19.428485,-99.1338"
42,La Joya Merendero,19.428372,-99.13339,Steakhouse,13383,2,NaN,55,"19.428485,-99.1338"
43,El Cantón,19.427059,-99.137072,Bar,13003,2,NaN,4,"19.427059,-99.137116"
44,Céntrico,19.4271,-99.137035,Bar,13003,2,NaN,9,"19.427059,-99.137116"
45,Hosteria la Bota,19.427179,-99.136904,Tapas Restaurant,13347,2,8.4,10,"19.427059,-99.137116"
46,El Depósito,19.427233,-99.137087,Bar,13003,2,7.7,10,"19.427059,-99.137116"
47,Mexica,19.426949,-99.13711,Mexican Restaurant,13303,1,NaN,12,"19.427059,-99.137116"
48,Chocolatería Mayordomo,19.427466,-99.13731,"Cafes, Coffee, and Tea Houses",13032,1,8.3,27,"19.427059,-99.137116"
49,Quesadillas Rafita,19.427426,-99.136935,Mexican Restaurant,13303,1,NaN,30,"19.427059,-99.137116"
50,La Fogatita,19.427398,-99.137002,Mexican Restaurant,13303,1,5.9,39,"19.427059,-99.137116"
51,tacos el Leon,19.426672,-99.137349,Taco Restaurant,13306,1,NaN,49,"19.427059,-99.137116"
52,Trattoria di Luu,19.426598,-99.135017,Pizzeria,13064,1,NaN,6,"19.426755,-99.135014"
53,Pescato's,19.426626,-99.13495,Seafood Restaurant,13338,3,6.7,8,"19.426755,-99.135014"
54,"Tacos ""el Papi""",19.426626,-99.13495,Mexican Restaurant,13303,1,6.8,10,"19.426755,-99.135014"
55,Taqueria el Silencioso,19.426939,-99.135288,Taco Restaurant,13306,1,6.3,18,"19.426755,-99.135014"
56,Pacha,19.426828,-99.135171,Bar,13003,2,NaN,18,"19.426755,-99.135014"
57,Pulquería la Chulada del Centro,19.427008,-99.135279,Beer Bar,13006,2,5.6,22,"19.426755,-99.135014"
58,La Chulada Pulques Chelas y Mezcal,19.426885,-99.135207,Bar,13003,2,NaN,24,"19.426755,-99.135014"
59,Taqueria el Papi,19.42657,-99.135084,Taco Restaurant,13306,1,NaN,24,"19.426755,-99.135014"
60,De Costa a Costa - Centro,19.426787,-99.134791,Seafood Restaurant,13338,3,NaN,26,"19.426755,-99.135014"
61,Perú Bar,19.426763,-99.135311,New American Restaurant,13314,3,NaN,31,"19.426755,-99.135014"
62,El Pechugón Perú Bar,19.427049,-99.135337,Peruvian Restaurant,13322,2,NaN,32,"19.426755,-99.135014"
63,Cantina Cosmopolita,19.426873,-99.134664,Bar,13003,2,7.1,34,"19.426755,-99.135014"
64,Terraza Barullo's Bar,19.426953,-99.135413,Beer Garden,13007,1,5.7,34,"19.426755,-99.135014"
65,Centro Cosmopolita,19.426873,-99.134664,Bar,13003,2,NaN,35,"19.426755,-99.135014"
66,"Tortas ""Shiro's""",19.427009,-99.134963,American Restaurant,13068,NaN,NaN,36,"19.426755,-99.135014"
67,La Mezcalita,19.426912,-99.135355,Bar,13003,2,6.0,38,"19.426755,-99.135014"
68,Pollos a la Brasa el Pechugón,19.427008,-99.135279,Peruvian Restaurant,13322,2,NaN,39,"19.426755,-99.135014"
69,Ensaladas Vero,19.426599,-99.1347,Sandwich Restaurant,13334,1,7.3,43,"19.426755,-99.135014"
70,Peggy Sues,19.427009,-99.134963,Burger Joint,13031,1,7.1,46,"19.426755,-99.135014"
71,El Jalisquillo,19.427415,-99.149537,Taco Restaurant,13306,1,NaN,12,"19.427305,-99.149533"
72,Comedor Secretaria de Gobernacion,19.427209,-99.149695,Diner,13049,1,NaN,14,"19.427305,-99.149533"
73,Sushi Movil,19.427223,-99.149503,Japanese Restaurant,13263,2,6.2,33,"19.427305,-99.149533"
74,Las Banderillas del Mini,19.427366,-99.14992,Fast Food Restaurant,13145,1,NaN,41,"19.427305,-99.149533"
75,Tacos de Guisado Balderas,19.427427,-99.149159,Taco Restaurant,13306,1,NaN,41,"19.427305,-99.149533"
76,Kangreburguers,19.427729,-99.149661,Burger Joint,13031,1,NaN,49,"19.427305,-99.149533"
77,Sushi San,19.425451,-99.137321,Japanese Restaurant,13263,2,6.9,13,"19.425311,-99.137421"
78,Tacos Soco,19.425518,-99.137628,Taco Restaurant,13306,1,NaN,18,"19.425311,-99.137421"
79,Donde Isabel,19.425588,-99.137303,Mexican Restaurant,13303,1,7.0,25,"19.425311,-99.137421"
80,Taquitos el Güero,19.425587,-99.137619,Taco Restaurant,13306,1,NaN,27,"19.425311,-99.137421"
81,El Rey de las Tortas,19.425518,-99.137628,Sandwich Restaurant,13334,1,NaN,30,"19.425311,-99.137421"
82,La Casa del Habanero,19.425724,-99.137601,Restaurant,13065,2,NaN,33,"19.425311,-99.137421"
83,Tacos Árabes Artabán,19.425295,-99.137753,Middle Eastern Restaurant,13309,2,NaN,34,"19.425311,-99.137421"
84,Salon Familiar la Mascota,19.425657,-99.137294,Bar,13003,2,NaN,49,"19.425311,-99.137421"
85,San Wichon,19.425725,-99.137285,Sandwich Restaurant,13334,1,NaN,55,"19.425311,-99.137421"
86,Arrachera's Grill,19.42541,-99.137263,American Restaurant,13068,4,7.5,152,"19.425311,-99.137421"
87,La Cima,19.432791,-99.151747,Bar,13003,2,NaN,3,"19.432819,-99.151734"
88,Viento en Popa,19.432556,-99.151432,Seafood Restaurant,13338,3,NaN,43,"19.432819,-99.151734"
89,Soy Capitán Pescadería,19.43041,-99.15444,Seafood Restaurant,13338,3,NaN,5,"19.430369,-99.154419"
90,Colmillo,19.430628,-99.154758,Cocktail Bar,13009,3,NaN,46,"19.430369,-99.154419"
91,Buscando que comer XD,19.430176,-99.15482,Afghan Restaurant,13066,2,NaN,47,"19.430369,-99.154419"
92,El Colmillo Affter,19.430025,-99.154647,Speakeasy,13021,3,NaN,55,"19.430369,-99.154419"
93,Circulo del Sureste,19.428783,-99.153416,Mexican Restaurant,13303,1,7.9,36,"19.428989,-99.153618"
94,Centro Yucateco Internacional,19.428811,-99.153349,Mexican Restaurant,13303,1,NaN,38,"19.428989,-99.153618"
95,McDonald's,19.429744,-99.159561,Burger Joint,13031,1,6.4,24,"19.429947,-99.159698"
96,La Cobacha,19.429725,-99.15964,Bar,13003,2,NaN,25,"19.429947,-99.159698"
97,La Nueva Argentina,19.429686,-99.159364,Steakhouse,13383,4,NaN,45,"19.429947,-99.159698"
98,Tacos de Mixiote Castelán,19.428838,-99.156576,Mexican Restaurant,13303,1,8.2,11,"19.428985,-99.15664"
99,Hop The Beer Experience,19.428838,-99.156576,Arts and Entertainment,10000,1,8.4,15,"19.428985,-99.15664"
100,Hop The Beer Experience,19.428934,-99.1565,Bar,13003,NaN,NaN,15,"19.428985,-99.15664"
101,La Marisqueria,19.428922,-99.156499,Seafood Restaurant,13338,3,NaN,16,"19.428985,-99.15664"
102,Los de Mexiote,19.428742,-99.156652,Taco Restaurant,13306,1,NaN,17,"19.428985,-99.15664"
103,Tlacoyos Londres,19.428838,-99.156576,Mexican Restaurant,13303,1,NaN,19,"19.428985,-99.15664"
104,Quesadillas del Sumesa,19.428838,-99.156576,Mexican Restaurant,13303,1,NaN,19,"19.428985,-99.15664"
105,Museo de Lo Increíble,19.428783,-99.15671,Museum,10027,NaN,NaN,23,"19.428985,-99.15664"
106,La Casona Restaurante,19.429042,-99.156866,Restaurant,13065,NaN,6.7,29,"19.428985,-99.15664"
107,Barbacoa Esqina Roma y Lisboa,19.429223,-99.156272,Mexican Restaurant,13303,1,NaN,44,"19.428985,-99.15664"
108,Museo Ripley,19.428618,-99.156795,Art Museum,10028,NaN,7.1,45,"19.428985,-99.15664"
109,La Pizzarra,19.428729,-99.156527,Pizzeria,13064,1,7.6,55,"19.428985,-99.15664"
110,Tacos la Sombrilla,19.427094,-99.158164,Taco Restaurant,13306,1,NaN,9,"19.427114,-99.158251"
111,Paracaidista Taproom - Juarez,19.427158,-99.158096,Brewery,13029,2,6.6,16,"19.427114,-99.158251"
112,Antojitos mexicanos Don Pery,19.426735,-99.158055,Mexican Restaurant,13303,1,NaN,36,"19.427114,-99.158251"
113,Tacos los Paisanos,19.426747,-99.158497,Taco Restaurant,13306,1,NaN,36,"19.427114,-99.158251"
114,Tamales Madre,19.427109,-99.157883,Mexican Restaurant,13303,1,8.2,38,"19.427114,-99.158251"
115,Toñocop's Aparment,19.425276,-99.159386,Speakeasy,13021,3,NaN,7,"19.425437,-99.159458"
116,Pizza Miah,19.425276,-99.159386,Pizzeria,13064,1,NaN,8,"19.425437,-99.159458"
117,El 123 Mini,19.425304,-99.159319,Café,13034,1,8.2,11,"19.425437,-99.159458"
118,Burrushi,19.425304,-99.159319,Asian Restaurant,13072,2,NaN,18,"19.425437,-99.159458"
119,BLOM Café,19.425221,-99.15952,Coffee Shop,13035,1,8.9,20,"19.425437,-99.159458"
120,Barbacoa Capulhuac,19.425276,-99.159386,Taco Restaurant,13306,1,NaN,20,"19.425437,-99.159458"
121,Los Molcajetes,19.425304,-99.159319,Mexican Restaurant,13303,1,5.8,25,"19.425437,-99.159458"
122,Mauricio's fonda,19.425675,-99.159207,Comfort Food Restaurant,13134,NaN,NaN,26,"19.425437,-99.159458"
123,Restaurante Napoles,19.425058,-99.159288,Mexican Restaurant,13303,1,5.6,31,"19.425437,-99.159458"
124,Del Rio Valdivia Maria Soledad,19.425497,-99.159167,Restaurant,13065,NaN,NaN,31,"19.425437,-99.159458"
125,Tacos Don Manolito,19.425193,-99.159587,Taco Restaurant,13306,1,6.4,32,"19.425437,-99.159458"
126,El Dorado,19.425534,-99.159133,Sandwich Restaurant,13334,1,NaN,35,"19.425437,-99.159458"
127,Buffet chino Lu Shan,19.425702,-99.15914,Asian Restaurant,13072,2,NaN,38,"19.425437,-99.159458"
128,Brujas House,19.423844,-99.160967,Wine Bar,13025,2,NaN,33,"19.424137,-99.161317"
129,Antojitos el Rinconcito,19.425522,-99.146559,Mexican Restaurant,13303,1,NaN,15,"19.425502,-99.146337"
130,Las Arracheras,19.425675,-99.146032,Beer Garden,13007,2,NaN,28,"19.425502,-99.146337"
131,Birrieria el Rancho,19.424467,-99.153031,Mexican Restaurant,13303,1,7.4,8,"19.424161,-99.153117"
132,Restaurante Paco's,19.424331,-99.152732,Restaurant,13065,2,7.1,12,"19.424161,-99.153117"
133,Cerveceria,19.424262,-99.15305,Bar,13003,2,NaN,13,"19.424161,-99.153117"
134,La Imperial,19.424115,-99.15298,Bar,13003,2,8.1,15,"19.424161,-99.153117"
135,Bar Sambuca Cuauhtémoc,19.42414,-99.153325,Bar,13003,2,5.8,21,"19.424161,-99.153117"
136,Tacos de birria el Pariente,19.423863,-99.153237,Taco Restaurant,13306,1,NaN,25,"19.424161,-99.153117"
137,Taquitos el Pariente,19.424466,-99.153348,Mexican Restaurant,13303,1,NaN,32,"19.424161,-99.153117"
138,Birria los Parientes,19.423863,-99.153237,Mexican Restaurant,13303,1,NaN,37,"19.424161,-99.153117"
139,Alma de Quetzal,19.423893,-99.152889,Yucatecan Restaurant,13308,NaN,7.2,38,"19.424161,-99.153117"
140,Santas Alitas,19.424411,-99.153482,Wings Joint,13388,1,NaN,43,"19.424161,-99.153117"
141,Las Jirafas,19.423741,-99.153283,Bar,13003,2,NaN,49,"19.424161,-99.153117"
142,Tacos al Carbon Doña Santa,19.424109,-99.153585,Taco Restaurant,13306,1,NaN,65,"19.424161,-99.153117"
143,Caldos Bens,19.422332,-99.162116,Restaurant,13065,NaN,NaN,5,"19.422288,-99.162138"
144,Casa Lorenzo,19.422647,-99.162138,Mexican Restaurant,13303,1,NaN,21,"19.422288,-99.162138"
145,Daddy's Burgers & Salads,19.422374,-99.161857,Burger Joint,13031,1,7.7,30,"19.422288,-99.162138"
146,Las Gorditas de Puebla,19.422402,-99.16179,Mexican Restaurant,13303,1,NaN,39,"19.422288,-99.162138"
147,Tortas y Tacos,19.423045,-99.158665,Taco Restaurant,13306,1,NaN,32,"19.423318,-99.15833"
148,Tacos de Isra,19.42347,-99.158736,Taco Restaurant,13306,1,NaN,33,"19.423318,-99.15833"
149,Martínez,19.423174,-99.158634,Wine Bar,13025,2,NaN,35,"19.423318,-99.15833"
150,hochos Patrick,19.423045,-99.158665,Burger Joint,13031,1,NaN,35,"19.423318,-99.15833"
151,Deseo Café de Especialidad,19.423075,-99.158281,Café,13034,1,8.5,37,"19.423318,-99.15833"
152,Tops,19.423361,-99.158687,Restaurant,13065,NaN,NaN,37,"19.423318,-99.15833"
153,Bennigan's,19.422965,-99.158232,Restaurant,13065,NaN,NaN,40,"19.423318,-99.15833"
154,El Flako,19.422946,-99.158485,Taco Restaurant,13306,1,NaN,44,"19.423318,-99.15833"
155,Tortas Roma,19.422907,-99.158476,Mexican Restaurant,13303,1,NaN,48,"19.423318,-99.15833"
156,Quesadillas Doña Mary,19.422952,-99.158107,Mexican Restaurant,13303,1,NaN,58,"19.423318,-99.15833"
157,Hungry Beast Juice Bar & Kitchen,19.422172,-99.160933,Restaurant,13065,1,6.7,15,"19.422148,-99.160645"
158,Bottega Sartoria,19.4222,-99.160866,Deli,13039,1,8.4,16,"19.422148,-99.160645"
159,Pizzera Della Maddonna,19.422188,-99.160819,Pizzeria,13064,1,NaN,18,"19.422148,-99.160645"
160,Cucina,19.422052,-99.16083,Restaurant,13065,2,NaN,22,"19.422148,-99.160645"
161,Buna,19.421955,-99.160518,Café,13034,NaN,NaN,25,"19.422148,-99.160645"
162,Madonna,19.422083,-99.160909,Italian Restaurant,13236,2,NaN,28,"19.422148,-99.160645"
163,Sartoria,19.421845,-99.160469,Italian Restaurant,13236,2,8.0,33,"19.422148,-99.160645"
164,Museo PADRE PRO,19.422445,-99.160866,History Museum,10030,NaN,NaN,40,"19.422148,-99.160645"
165,Café Toscano,19.421845,-99.160469,Café,13034,2,7.7,61,"19.422148,-99.160645"
166,Restaurante Oxacobeo,19.419513,-99.161091,Spanish Restaurant,13345,NaN,NaN,24,"19.419579,-99.161314"
167,Las Pelonchas,19.419787,-99.161055,Burger Joint,13031,1,NaN,26,"19.419579,-99.161314"
168,Papas Guapas,19.419716,-99.161698,Restaurant,13065,2,NaN,30,"19.419579,-99.161314"
169,Game Over PartyParty,19.419389,-99.161234,Bar,13003,2,NaN,37,"19.419579,-99.161314"
170,O'xacobeo,19.419527,-99.160899,Spanish Restaurant,13345,2,7.7,39,"19.419579,-99.161314"
171,Restaurante Centro Gallego,19.4195,-99.160966,Spanish Restaurant,13345,2,7.3,48,"19.419579,-99.161314"
172,Modena Pizza Napolitana,19.420834,-99.156484,Pizzeria,13064,1,NaN,15,"19.420667,-99.15645"
173,The Food Box,19.420831,-99.156399,Burger Joint,13031,1,7.4,18,"19.420667,-99.15645"
174,Comal de Piedra,19.420903,-99.156475,Mexican Restaurant,13303,1,7.2,19,"19.420667,-99.15645"
175,La Ensalada Loka,19.420957,-99.156658,Salad Restaurant,13332,1,NaN,28,"19.420667,-99.15645"
176,Penya Blaugrana Ciutat de Mèxic,19.420973,-99.15615,Lounge,13016,3,NaN,30,"19.420667,-99.15645"
177,Salón Paseo de Gracia,19.420973,-99.15615,Restaurant,13065,2,7.7,31,"19.420667,-99.15645"
178,Sr. Taco,19.420492,-99.156529,Mexican Restaurant,13303,1,NaN,32,"19.420667,-99.15645"
179,Frito y Cruel,19.420464,-99.156596,Fried Chicken Joint,13055,1,6.7,33,"19.420667,-99.15645"
180,Nitrology,19.42048,-99.156087,Ice Cream Parlor,13046,1,7.1,39,"19.420667,-99.15645"
181,El Cuartito,19.420626,-99.156058,Speakeasy,13021,3,NaN,41,"19.420667,-99.15645"
182,Distro Bistrot,19.420494,-99.156086,Bistro,13027,NaN,NaN,44,"19.420667,-99.15645"
183,Eva Sandwichería,19.420296,-99.156249,Sandwich Restaurant,13334,1,NaN,46,"19.420667,-99.15645"
184,Ricas Quesadillas Hnos. Hernandez,19.421112,-99.15471,Mexican Restaurant,13303,1,NaN,3,"19.421138,-99.154725"
185,Barbacoa de Calpulhuac,19.421239,-99.154721,Mexican Restaurant,13303,1,NaN,11,"19.421138,-99.154725"
186,Cemitas del tienguis,19.421363,-99.154578,Mexican Restaurant,13303,1,NaN,15,"19.421138,-99.154725"
187,Tacos y Mixiotes Garrido,19.421266,-99.154971,Taco Restaurant,13306,1,NaN,19,"19.421138,-99.154725"
188,Garnacha Tianguis Alvaro Obregon,19.421225,-99.154913,Mexican Restaurant,13303,1,NaN,19,"19.421138,-99.154725"
189,La Más Poblana,19.421322,-99.15452,Mexican Restaurant,13303,1,NaN,26,"19.421138,-99.154725"
190,Fideogordo,19.4213,-99.15441,Asian Restaurant,13072,2,NaN,37,"19.421138,-99.154725"
191,"Pancita, pozole y enchiladas yola",19.421114,-99.155181,Mexican Restaurant,13303,1,NaN,42,"19.421138,-99.154725"
192,Pizza Pepino,19.421114,-99.155181,Pizzeria,13064,NaN,NaN,47,"19.421138,-99.154725"
193,Barrio Fino,19.421378,-99.154386,Bar,13003,2,NaN,51,"19.421138,-99.154725"
194,Quesadillas de Colima,19.421114,-99.155181,Mexican Restaurant,13303,1,6.4,61,"19.421138,-99.154725"
195,Pizza Peppino,19.421114,-99.155181,Pizzeria,13064,2,8.1,66,"19.421138,-99.154725"
196,Bandido de Parral,19.418026,-99.159513,Seafood Restaurant,13338,3,7.9,20,"19.418304,-99.15956"
197,Primos,19.418026,-99.159513,Mexican Restaurant,13303,1,6.0,20,"19.418304,-99.15956"
198,Marcello,19.418108,-99.159548,Italian Restaurant,13236,2,NaN,21,"19.418304,-99.15956"
199,El 10,19.418094,-99.159504,Restaurant,13065,NaN,NaN,24,"19.418304,-99.15956"
200,"Burger Bar Joint, Roma",19.418136,-99.159245,Burger Joint,13031,3,7.7,26,"19.418304,-99.15956"
201,El 10 Comida Argentina,19.418026,-99.159513,Argentinian Restaurant,13070,NaN,NaN,31,"19.418304,-99.15956"
202,Freims,19.418026,-99.159513,Restaurant,13065,NaN,NaN,31,"19.418304,-99.15956"
203,Cervecería Mamona,19.41816,-99.159258,Seafood Restaurant,13338,3,NaN,35,"19.418304,-99.15956"
204,Casa Lamm,19.418615,-99.159499,Diner,13049,NaN,NaN,35,"19.418304,-99.15956"
205,Nueve Nueve Bistro Mexicano,19.418615,-99.159499,Restaurant,13065,NaN,NaN,35,"19.418304,-99.15956"
206,La Cervecería de Barrio,19.418136,-99.159245,Brewery,13029,2,7.0,39,"19.418304,-99.15956"
207,Tetela,19.418158,-99.159251,Restaurant,13065,2,NaN,40,"19.418304,-99.15956"
208,Licorería Limantour,19.418094,-99.159504,Cocktail Bar,13009,3,8.7,41,"19.418304,-99.15956"
209,Alfredos,19.418024,-99.15983,Restaurant,13065,NaN,NaN,42,"19.418304,-99.15956"
210,Scimia,19.418334,-99.159148,Pizzeria,13064,1,NaN,43,"19.418304,-99.15956"
211,"El Diez, Parrilla Argentina",19.418094,-99.159962,Argentinian Restaurant,13070,2,NaN,48,"19.418304,-99.15956"
212,"El 10, Roma",19.417956,-99.159839,Argentinian Restaurant,13070,NaN,NaN,48,"19.418304,-99.15956"
213,Bistro Mexicano 99,19.418615,-99.159499,Mexican Restaurant,13303,3,7.6,51,"19.418304,-99.15956"
214,Cevicheria MAMONA,19.418078,-99.159171,Seafood Restaurant,13338,3,NaN,53,"19.418304,-99.15956"
215,NueveNueve,19.418697,-99.159615,American Restaurant,13068,3,8.0,610,"19.418304,-99.15956"
216,The Sano,19.419414,-99.155214,Vegan and Vegetarian Restaurant,13377,2,7.6,12,"19.419225,-99.155099"
217,Tortas y Tacos la Roma,19.419483,-99.155205,Comfort Food Restaurant,13134,NaN,NaN,21,"19.419225,-99.155099"
218,Restaurante Maíz y Olivo,19.419414,-99.155214,Mediterranean Restaurant,13302,2,5.8,27,"19.419225,-99.155099"
219,Matadoras Tortas de Chilakill,19.419097,-99.155469,Comfort Food Restaurant,13134,NaN,NaN,41,"19.419225,-99.155099"
220,El Deposito,19.419372,-99.155472,Bar,13003,NaN,NaN,42,"19.419225,-99.155099"
221,Wings Alvaro Obregon,19.419372,-99.155472,Restaurant,13065,NaN,NaN,42,"19.419225,-99.155099"
222,El Campirano - Roma Norte,19.419372,-99.155472,Bar,13003,NaN,NaN,42,"19.419225,-99.155099"
223,El Deposito - Roma Norte,19.419372,-99.155472,Pub,13018,1,7.6,43,"19.419225,-99.155099"
224,El Levanton,19.419004,-99.154951,Seafood Restaurant,13338,3,NaN,44,"19.419225,-99.155099"
225,El Campirano Álvaro Obregón,19.419238,-99.155564,Buffet,13030,NaN,6.3,48,"19.419225,-99.155099"
226,El Califa,19.417382,-99.162637,Taco Restaurant,13306,1,7.4,23,"19.417715,-99.162729"
227,El Sibarita,19.417663,-99.162945,Spanish Restaurant,13345,2,NaN,23,"19.417715,-99.162729"
228,Mexa Cocina del Alma,19.417513,-99.162865,Mexican Restaurant,13303,1,NaN,26,"19.417715,-99.162729"
229,Tacos Orinoco,19.417872,-99.163014,Taco Restaurant,13306,1,9.0,34,"19.417715,-99.162729"
230,El Barandal,19.417354,-99.162704,Restaurant,13065,NaN,NaN,40,"19.417715,-99.162729"
231,Finca Santa Veracruz,19.418054,-99.162423,Café,13034,1,7.0,61,"19.417715,-99.162729"
232,Moonwalk,19.418585,-99.156906,Bar,13003,2,NaN,18,"19.418774,-99.157081"
233,Bon Appetit!,19.418516,-99.156915,Restaurant,13065,2,NaN,24,"19.418774,-99.157081"
234,Sebo,19.418476,-99.156857,Karaoke Bar,13015,2,NaN,25,"19.418774,-99.157081"
235,Los Bisquets Bisquets Obregón,19.418501,-99.157424,Taco Restaurant,13306,2,7.8,26,"19.418774,-99.157081"
236,Taquitos Frontera,19.41886,-99.157384,Taco Restaurant,13306,1,6.6,33,"19.418774,-99.157081"
237,Garash,19.419091,-99.157093,Museum,10027,NaN,NaN,35,"19.418774,-99.157081"
238,Azotea Acapulco,19.41916,-99.157084,Restaurant,13065,2,5.2,37,"19.418774,-99.157081"
239,Taqueria los Pepe's,19.418481,-99.157297,Taco Restaurant,13306,1,NaN,39,"19.418774,-99.157081"
240,La Mata Dietas,19.419065,-99.156773,Taco Restaurant,13306,1,NaN,45,"19.418774,-99.157081"
241,"Los Bisquets Obregon, Alvaro Obregon",19.418501,-99.157424,Coffee Shop,13035,NaN,NaN,47,"19.418774,-99.157081"
242,Cafe Restaurante la Perla del Este,19.418501,-99.157424,Coffee Shop,13035,NaN,NaN,47,"19.418774,-99.157081"
243,Toto & Mole,19.416057,-99.162133,Mexican Restaurant,13303,1,NaN,8,"19.416128,-99.162097"
244,Don Don Tamale,19.416137,-99.16204,Mexican Restaurant,13303,1,NaN,10,"19.416128,-99.162097"
245,Chatita Chula,19.416018,-99.162103,Restaurant,13065,2,NaN,12,"19.416128,-99.162097"
246,Cafe de Tonala,19.41574,-99.161902,Mexican Restaurant,13303,1,NaN,34,"19.416128,-99.162097"
247,Vx Cafe,19.415889,-99.162326,Coffee Shop,13035,NaN,NaN,35,"19.416128,-99.162097"
248,Las Flautas,19.415781,-99.16196,Taco Restaurant,13306,1,5.6,36,"19.416128,-99.162097"
249,El Huerto UC,19.415655,-99.159443,Molecular Gastronomy Restaurant,13311,4,NaN,20,"19.415905,-99.15954"
250,La Arrogante,19.415751,-99.159367,Bar,13003,NaN,NaN,24,"19.415905,-99.15954"
251,"Jochos, Hamburguesas y Sincronizadas Callejeras",19.415723,-99.159379,American Restaurant,13068,2,NaN,26,"19.415905,-99.15954"
252,Vagabundo,19.415654,-99.15976,Mexican Restaurant,13303,1,NaN,26,"19.415905,-99.15954"
253,Hamburguesas el Chino,19.415779,-99.1593,Burger Joint,13031,1,NaN,29,"19.415905,-99.15954"
254,La China,19.416063,-99.159245,Taco Restaurant,13306,1,NaN,35,"19.415905,-99.15954"
255,Restaurante Italiano Amore,19.416052,-99.159581,Italian Restaurant,13236,2,NaN,38,"19.415905,-99.15954"
256,Café Toscano,19.415913,-99.159916,Restaurant,13065,NaN,NaN,39,"19.415905,-99.15954"
257,"Tortería ""Los Güeros""",19.414319,-99.157655,Fast Food Restaurant,13145,1,8.2,22,"19.414303,-99.157542"
258,Pizza Classica,19.414389,-99.157329,Bar,13003,1,7.7,35,"19.414303,-99.157542"
259,La Catrina Grill House,19.415258,-99.154941,New American Restaurant,13314,3,NaN,13,"19.415192,-99.154837"
260,Big Mamma's Taqueria,19.415264,-99.154744,Taco Restaurant,13306,1,NaN,19,"19.415192,-99.154837"
261,Los Burritos del 21,19.415223,-99.154686,Mexican Restaurant,13303,1,NaN,26,"19.415192,-99.154837"
262,Hamburguesas Chelito,19.415114,-99.154407,Burger Joint,13031,1,NaN,45,"19.415192,-99.154837"
263,El Perico Campechano,19.412315,-99.158424,Seafood Restaurant,13338,3,6.2,9,"19.412182,-99.158443"
264,The Beer Company la Roma,19.412,-99.158402,Beer Bar,13006,NaN,NaN,14,"19.412182,-99.158443"
265,Asador Grill,19.411917,-99.158603,BBQ Joint,13026,2,NaN,19,"19.412182,-99.158443"
266,Sweet Monster,19.411959,-99.15845,Ice Cream Parlor,13046,1,6.7,24,"19.412182,-99.158443"
267,Maizajo,19.412273,-99.158683,Mexican Restaurant,13303,1,NaN,29,"19.412182,-99.158443"
268,Alan's Pub,19.411876,-99.158545,Pub,13018,1,NaN,31,"19.412182,-99.158443"
269,Las Musas de PapáSibarita,19.412098,-99.158009,Italian Restaurant,13236,2,7.4,36,"19.412182,-99.158443"
270,El Picha,19.412417,-99.15815,Restaurant,13065,2,NaN,40,"19.412182,-99.158443"
271,Le gutie,19.411932,-99.158145,Bar,13003,2,6.3,41,"19.412182,-99.158443"
272,Santa Elisabetta,19.412098,-99.158009,Coffee Shop,13035,NaN,NaN,46,"19.412182,-99.158443"
273,La Torre Nevera,19.411862,-99.158737,Bar,13003,2,NaN,49,"19.412182,-99.158443"
274,Quecas Orizaba,19.412603,-99.158513,Mexican Restaurant,13303,1,7.1,57,"19.412182,-99.158443"
275,Quesadillas Nice la Roma!,19.412603,-99.158513,Eastern European Restaurant,13139,2,NaN,63,"19.412182,-99.158443"
276,La Sombrilla Amarilla,19.412603,-99.158513,Taco Restaurant,13306,1,NaN,65,"19.412182,-99.158443"
277,El Pasito,19.41289,-99.155308,Taco Restaurant,13306,1,8.2,18,"19.412829,-99.155116"
278,Puesto de Mariscos Katy,19.41259,-99.155095,Seafood Restaurant,13338,3,NaN,21,"19.412829,-99.155116"
279,Fleming,19.412673,-99.154894,Restaurant,13065,NaN,NaN,29,"19.412829,-99.155116"
280,Potzollcalli Cuauhtemoc la Roma,19.413194,-99.154889,Fast Food Restaurant,13145,NaN,NaN,47,"19.412829,-99.155116"
281,Julia's Bar,19.413001,-99.155041,Karaoke Bar,13015,2,NaN,658,"19.412829,-99.155116"
282,Antojitos Ana Laura,19.408974,-99.167285,Taco Restaurant,13306,1,NaN,9,"19.409098,-99.167181"
283,El Parrillón de Gus,19.409232,-99.167273,Taco Restaurant,13306,1,NaN,17,"19.409098,-99.167181"
284,Ensaladas el Jarocho,19.409288,-99.16719,Salad Restaurant,13332,1,NaN,21,"19.409098,-99.167181"
285,El Pescadito,19.409291,-99.166991,Seafood Restaurant,13338,3,8.6,29,"19.409098,-99.167181"
286,Domino's Pizza,19.409429,-99.167316,Pizzeria,13064,1,5.8,39,"19.409098,-99.167181"
287,Bar Sixtie's,19.409456,-99.167268,Burger Joint,13031,1,NaN,40,"19.409098,-99.167181"
288,Keen'ki,19.409195,-99.167586,Taco Restaurant,13306,1,NaN,43,"19.409098,-99.167181"
289,Birrieria Jalisco,19.408931,-99.167613,Mexican Restaurant,13303,1,NaN,48,"19.409098,-99.167181"
290,súper Tortas Zaragoza,19.406414,-99.166734,Mexican Restaurant,13303,1,NaN,13,"19.406236,-99.166616"
291,Tortas la Roma,19.406224,-99.166252,Sandwich Restaurant,13334,1,NaN,22,"19.406236,-99.166616"
292,Tacos el Parrillon,19.406224,-99.166252,Taco Restaurant,13306,1,NaN,22,"19.406236,-99.166616"
293,Café Rivoli,19.40614,-99.16677,Café,13034,1,5.9,25,"19.406236,-99.166616"
294,El Parrillon,19.406336,-99.166387,Taco Restaurant,13306,1,5.5,26,"19.406236,-99.166616"
295,Quesadillas Pepe,19.40614,-99.16677,Mexican Restaurant,13303,1,NaN,29,"19.406236,-99.166616"
296,Tacos el califa de leon,19.405962,-99.16673,Restaurant,13065,NaN,NaN,32,"19.406236,-99.166616"
297,"La Huerta, Metropolitano",19.406484,-99.166408,Restaurant,13065,NaN,NaN,35,"19.406236,-99.166616"
298,Rincon Azul Mexico,19.406544,-99.166766,Mexican Restaurant,13303,1,4.8,37,"19.406236,-99.166616"
299,Sushi Ryu Time. Calle Tepic #126,19.405838,-99.16663,Sushi Restaurant,13276,2,NaN,44,"19.406236,-99.166616"
300,El Rincon Azul Hospital Angeles Metropolitano,19.406523,-99.166783,Restaurant,13065,2,5.1,56,"19.406236,-99.166616"
301,La Huerta Cafe,19.406633,-99.166832,Restaurant,13065,2,NaN,62,"19.406236,-99.166616"
302,La Vaca Negra,19.407299,-99.155345,Diner,13049,2,6.6,11,"19.407517,-99.155373"
303,Joe's Burger,19.407612,-99.15533,Burger Joint,13031,1,NaN,11,"19.407517,-99.155373"
304,Tacos afuera del Auditorio Centro Médico,19.407299,-99.155345,Taco Restaurant,13306,1,NaN,20,"19.407517,-99.155373"
305,Los de Arrachera Grill,19.407572,-99.155625,BBQ Joint,13026,2,NaN,20,"19.407517,-99.155373"
306,Cochinita Pibil Chelis,19.407614,-99.155367,Mexican Restaurant,13303,1,7.3,22,"19.407517,-99.155373"
307,Café de la Tía María,19.407271,-99.155412,Mexican Restaurant,13303,1,4.7,25,"19.407517,-99.155373"
308,Choripan Argentino,19.407784,-99.155375,Argentinian Restaurant,13070,2,NaN,29,"19.407517,-99.155373"
309,Joe's Pizza,19.407614,-99.155367,Burger Joint,13031,1,NaN,35,"19.407517,-99.155373"
310,Joe's Burguer,19.40713,-99.155353,BBQ Joint,13026,2,NaN,43,"19.407517,-99.155373"
311,Hells Pizza,19.40448,-99.16059,Pizzeria,13064,1,5.3,10,"19.404268,-99.160503"
312,Tacos Don Frank,19.404014,-99.160778,Restaurant,13065,2,7.7,22,"19.404268,-99.160503"
313,Lo del Che,19.404368,-99.160701,BBQ Joint,13026,2,NaN,23,"19.404268,-99.160503"
314,Keep Calm Play Beer Pong,19.404053,-99.160495,Beer Bar,13006,NaN,NaN,23,"19.404268,-99.160503"
315,Gandinis Casino & Dance Club,19.404495,-99.160399,Speakeasy,13021,3,NaN,25,"19.404268,-99.160503"
316,Sury Pau,19.40426,-99.160797,Restaurant,13065,2,NaN,30,"19.404268,-99.160503"
317,Rodeo Cruzeli's,19.406135,-99.183667,Pizzeria,13064,1,NaN,14,"19.406069,-99.183549"
318,Aura Bistrot,19.406149,-99.183363,Bistro,13027,NaN,8.3,21,"19.406069,-99.183549"
319,El Antojito Francés,19.405916,-99.183457,French Restaurant,13148,3,6.2,23,"19.406069,-99.183549"
320,La Tlaxcalteca Antojitos,19.406164,-99.183171,Mexican Restaurant,13303,1,5.3,35,"19.406069,-99.183549"
321,Atamalkualiztli,19.405821,-99.183216,Bistro,13027,NaN,NaN,36,"19.406069,-99.183549"
322,Lonchería la Tlaxcalteca,19.405821,-99.183216,Mexican Restaurant,13303,1,6.6,38,"19.406069,-99.183549"
323,Los Mila,19.406021,-99.18319,Taco Restaurant,13306,1,NaN,38,"19.406069,-99.183549"
324,The Shrimp With The Big Stomach,19.405962,-99.183997,Seafood Restaurant,13338,3,NaN,48,"19.406069,-99.183549"
325,Barbacoa y Consome Capulhuac,19.404797,-99.179106,Taco Restaurant,13306,1,NaN,17,"19.404651,-99.179375"
326,Barbacoa progreso,19.404507,-99.179651,Taco Restaurant,13306,1,6.2,23,"19.404651,-99.179375"
327,Restaurante las Delicias,19.40477,-99.179173,Mexican Restaurant,13303,1,6.1,23,"19.404651,-99.179375"
328,El Rincón Poblano,19.404507,-99.179651,Mexican Restaurant,13303,1,6.2,28,"19.404651,-99.179375"
329,Santa Elena,19.404974,-99.179463,Restaurant,13065,NaN,NaN,37,"19.404651,-99.179375"
330,Club 03,19.404561,-99.179834,Bar,13003,2,NaN,55,"19.404651,-99.179375"
331,El Taco Ranchero,19.401653,-99.176392,Mexican Restaurant,13303,1,NaN,3,"19.401682,-99.176398"
332,Taqueria Escandon,19.401684,-99.1766,Taco Restaurant,13306,1,6.8,6,"19.401682,-99.176398"
333,"Tacos ""El Rebaño""",19.40185,-99.176199,Taco Restaurant,13306,1,NaN,7,"19.401682,-99.176398"
334,Tacos los Volcanes,19.401744,-99.176499,Taco Restaurant,13306,1,NaN,12,"19.401682,-99.176398"
335,El Pollón de Jalisco,19.401878,-99.176132,Fried Chicken Joint,13055,1,6.9,14,"19.401682,-99.176398"
336,Fonda la Tia,19.401804,-99.176319,Restaurant,13065,2,NaN,15,"19.401682,-99.176398"
337,El Vitaminas,19.402026,-99.176556,Mexican Restaurant,13303,1,5.6,17,"19.401682,-99.176398"
338,La Economica,19.401835,-99.176391,Restaurant,13065,NaN,NaN,17,"19.401682,-99.176398"
339,Funk Rock Cafe,19.402026,-99.176556,Burger Joint,13031,1,8.0,28,"19.401682,-99.176398"
340,"Quecas, Gorditas y Pozole",19.401798,-99.176647,Mexican Restaurant,13303,1,NaN,29,"19.401682,-99.176398"
341,Quique&Chuy,19.401864,-99.176007,Comfort Food Restaurant,13134,NaN,NaN,39,"19.401682,-99.176398"
342,Sopas Perico,19.402026,-99.176556,Restaurant,13065,2,NaN,41,"19.401682,-99.176398"
343,"Tacos ""Ruben's""",19.401824,-99.175949,Taco Restaurant,13306,1,8.0,49,"19.401682,-99.176398"
344,Playitas Escandon,19.400635,-99.172559,Seafood Restaurant,13338,3,7.4,14,"19.400767,-99.172533"
345,Tacos las Cazuelas,19.400628,-99.172573,Taco Restaurant,13306,1,NaN,15,"19.400767,-99.172533"
346,Chilakilazos,19.400837,-99.172848,Mexican Restaurant,13303,1,7.2,16,"19.400767,-99.172533"
347,"Fonda ""México Lindo""",19.400864,-99.172781,Restaurant,13065,2,NaN,17,"19.400767,-99.172533"
348,La Tipica,19.400757,-99.1727,Mexican Restaurant,13303,1,NaN,17,"19.400767,-99.172533"
349,Las Ahogadas Express,19.401001,-99.172763,Fast Food Restaurant,13145,1,NaN,19,"19.400767,-99.172533"
350,El Rinconcito Italiano,19.400933,-99.172772,Pizzeria,13064,1,NaN,20,"19.400767,-99.172533"
351,El divino pecado,19.401003,-99.172446,Salad Restaurant,13332,1,NaN,22,"19.400767,-99.172533"
352,Pilarica,19.400809,-99.172915,Mexican Restaurant,13303,1,5.7,25,"19.400767,-99.172533"
353,"Tacos de Suadero ""El Chido""",19.400468,-99.172643,Taco Restaurant,13306,1,NaN,25,"19.400767,-99.172533"
354,Ensaladas las flores,19.400562,-99.172884,Salad Restaurant,13332,1,NaN,26,"19.400767,-99.172533"
355,Chilaquilazos,19.400885,-99.172775,Mexican Restaurant,13303,1,NaN,28,"19.400767,-99.172533"
356,"Taqueria ""Que Rico Taco""",19.400427,-99.172585,Taco Restaurant,13306,1,NaN,29,"19.400767,-99.172533"
357,La coqueta de merida,19.40107,-99.172754,Taco Restaurant,13306,1,NaN,31,"19.400767,-99.172533"
358,Babylon,19.400809,-99.172915,Speakeasy,13021,3,NaN,40,"19.400767,-99.172533"
359,Taqueria y Cevicheria de Barrio,19.400414,-99.17246,Seafood Restaurant,13338,3,NaN,42,"19.400767,-99.172533"
360,Mac Pancho's Burguers,19.400441,-99.172773,Burger Joint,13031,1,NaN,44,"19.400767,-99.172533"
361,Café 54,19.400904,-99.17209,Coffee Shop,13035,1,NaN,48,"19.400767,-99.172533"
362,"Cata de Vinos, Licores y Cervezas",19.400809,-99.172915,Wine Bar,13025,2,NaN,51,"19.400767,-99.172533"
363,Hamburguesas la Salle,19.408918,-99.181829,Burger Joint,13031,1,NaN,16,"19.408841,-99.181692"
364,Tortas el Puas,19.408555,-99.181782,Sandwich Restaurant,13334,1,NaN,20,"19.408841,-99.181692"
365,Quesadillas Chingonas,19.40876,-99.181755,Taco Restaurant,13306,1,NaN,22,"19.408841,-99.181692"
366,Tlacoyos y Quecas,19.408967,-99.181894,Mexican Restaurant,13303,1,NaN,25,"19.408841,-99.181692"
367,Selekto,19.40876,-99.181755,Restaurant,13065,2,5.0,25,"19.408841,-99.181692"
368,Hamburguesas y Jochos Chingones,19.40876,-99.181755,Burger Joint,13031,1,NaN,27,"19.408841,-99.181692"
369,"hochos ""El Bigotes""",19.408855,-99.181996,Hot Dog Joint,13058,1,NaN,43,"19.408841,-99.181692"
370,The Beer Company,19.404402,-99.171431,Mexican Restaurant,13303,1,NaN,5,"19.404452,-99.171438"
371,Buffalo wings,19.404432,-99.17168,Wings Joint,13388,1,NaN,10,"19.404452,-99.171438"
372,La Cebolla Morada,19.404323,-99.171631,Mexican Restaurant,13303,1,7.8,16,"19.404452,-99.171438"
373,Churreria Porfirio Condesa,19.404255,-99.17164,Coffee Shop,13035,1,NaN,16,"19.404452,-99.171438"
374,El Coshiloco Condesa,19.404587,-99.171335,Taco Restaurant,13306,1,NaN,18,"19.404452,-99.171438"
375,El Mañanero Desayunos,19.404405,-99.171674,Comfort Food Restaurant,13134,NaN,NaN,25,"19.404452,-99.171438"
376,Delicioso y Sano,19.404202,-99.171141,Burger Joint,13031,1,NaN,26,"19.404452,-99.171438"
377,Miscelánea Chancla Azul,19.404448,-99.171172,Sandwich Restaurant,13334,1,NaN,26,"19.404452,-99.171438"
378,El Coshiloco,19.404449,-99.171169,Mexican Restaurant,13303,1,NaN,28,"19.404452,-99.171438"
379,Los Arroces,19.404646,-99.171639,Comfort Food Restaurant,13134,NaN,NaN,30,"19.404452,-99.171438"
380,Sushi-sito,19.404667,-99.17127,Sushi Restaurant,13276,2,5.6,31,"19.404452,-99.171438"
381,El Rabanito Banda,19.404145,-99.171591,Bar,13003,2,NaN,32,"19.404452,-99.171438"
382,"Tacos de Guisados ""Del Chef""",19.404161,-99.171083,Taco Restaurant,13306,1,NaN,44,"19.404452,-99.171438"
383,Burger,19.40472,-99.171769,Burger Joint,13031,1,NaN,46,"19.404452,-99.171438"
384,Las Hijas de la Tostada,19.404667,-99.17127,Taco Restaurant,13306,1,NaN,53,"19.404452,-99.171438"
385,Tassende,19.404631,-99.170261,Restaurant,13065,2,NaN,35,"19.404554,-99.169953"
386,Rosas Carrizosa Eloy,19.404644,-99.170386,Restaurant,13065,NaN,NaN,46,"19.404554,-99.169953"
387,Pásele Joven! Birria y Pozole,19.404343,-99.170172,Mexican Restaurant,13303,1,NaN,47,"19.404554,-99.169953"
388,Tortas Locas Hipocampo,19.438439,-99.192995,Fast Food Restaurant,13145,1,NaN,13,"19.438349,-99.192904"
389,Los Chillakillers,19.438125,-99.192898,Mexican Restaurant,13303,1,NaN,24,"19.438349,-99.192904"
390,Tacos de Muerte Lenta,19.438565,-99.192807,Taco Restaurant,13306,1,NaN,31,"19.438349,-99.192904"
391,Jhonny's Bar,19.438261,-99.193227,Dive Bar,13010,1,NaN,37,"19.438349,-99.192904"
392,SAM'S Café,19.438685,-99.192589,Fast Food Restaurant,13145,1,5.5,49,"19.438349,-99.192904"
393,Corcho & Jamon,19.43755,-99.188773,Spanish Restaurant,13345,2,NaN,5,"19.437596,-99.188785"
394,La Piccola Trattoria,19.437595,-99.188879,Pizzeria,13064,2,7.6,7,"19.437596,-99.188785"
395,Caffe Diemme Polanco,19.4376,-99.188877,Bistro,13027,NaN,NaN,9,"19.437596,-99.188785"
396,Los Cauques,19.437431,-99.188647,Seafood Restaurant,13338,3,NaN,19,"19.437596,-99.188785"
397,Burgersmx,19.437664,-99.18908,Burger Joint,13031,1,NaN,31,"19.437596,-99.188785"
398,Mi México Lindo,19.43758,-99.189071,Mexican Restaurant,13303,1,6.3,32,"19.437596,-99.188785"
399,María Clemente,19.437706,-99.18909,Restaurant,13065,2,NaN,34,"19.437596,-99.188785"
400,Jalapeño,19.437254,-99.188803,Mexican Restaurant,13303,1,NaN,38,"19.437596,-99.188785"
401,Rock House Vip,19.437347,-99.189165,Whisky Bar,13024,3,NaN,45,"19.437596,-99.188785"
402,Thor Tortas,19.435723,-99.191251,Sandwich Restaurant,13334,1,NaN,33,"19.435882,-99.19152"
403,KFC,19.435824,-99.1912,Fast Food Restaurant,13145,1,NaN,34,"19.435882,-99.19152"
404,Quedadillas y Tacos la Güerita,19.434844,-99.183419,Mexican Restaurant,13303,1,NaN,10,"19.434861,-99.183322"
405,Tacos de Suderman,19.435014,-99.183514,Taco Restaurant,13306,1,NaN,33,"19.434861,-99.183322"
406,Perú Experiencia Gourmet,19.434506,-99.183134,Restaurant,13065,2,NaN,44,"19.434861,-99.183322"
407,Italiano Liverpool,19.434532,-99.183051,Pizzeria,13064,1,6.1,46,"19.434861,-99.183322"
408,Marisqueria Gourmet Liverpool,19.434511,-99.183053,Seafood Restaurant,13338,3,5.9,47,"19.434861,-99.183322"
409,Sushi Gourmet Liverpool,19.434756,-99.182882,Sushi Restaurant,13276,2,NaN,47,"19.434861,-99.183322"
410,Perú,19.434563,-99.183193,Peruvian Restaurant,13322,2,NaN,47,"19.434861,-99.183322"
411,Experiencia Gourmet Liverpool Polanco,19.434646,-99.182992,Gastropub,13057,2,8.1,51,"19.434861,-99.183322"
412,Eldiez,19.433595,-99.188198,Argentinian Restaurant,13070,2,NaN,6,"19.433567,-99.188096"
413,Puesto tamales & chilaquiles Spencer,19.433414,-99.187885,Mexican Restaurant,13303,1,NaN,27,"19.433567,-99.188096"
414,H400 Polanco,19.433184,-99.188252,Cocktail Bar,13009,3,NaN,34,"19.433567,-99.188096"
415,El Tucas,19.433843,-99.187912,Restaurant,13065,NaN,NaN,36,"19.433567,-99.188096"
416,Karaoke My way,19.433649,-99.188381,Karaoke Bar,13015,2,6.3,37,"19.433567,-99.188096"
417,Restaurante Bros el Original,19.433912,-99.187903,Seafood Restaurant,13338,NaN,NaN,43,"19.433567,-99.188096"
418,Los Villanos,19.43325,-99.18837,Taco Restaurant,13306,1,7.7,45,"19.433567,-99.188096"
419,Comida de Cajuela,19.433288,-99.195841,American Restaurant,13068,2,NaN,1,"19.433419,-99.195746"
420,Comida de la Señora,19.433549,-99.195733,Diner,13049,1,NaN,14,"19.433419,-99.195746"
421,Woolworth Cafe W Polanco,19.433507,-99.195939,Coffee Shop,13035,NaN,NaN,22,"19.433419,-99.195746"
422,Doña Taco,19.433657,-99.196046,Burrito Restaurant,13305,1,NaN,32,"19.433419,-99.195746"
423,Fogo de Chão México,19.431356,-99.19565,Brazilian Restaurant,13079,4,8.5,5,"19.431417,-99.195774"
424,Bacos Restaurante Bar,19.431328,-99.195717,Restaurant,13065,NaN,NaN,11,"19.431417,-99.195774"
425,Moshi Moshi,19.43126,-99.195726,Restaurant,13065,NaN,NaN,18,"19.431417,-99.195774"
426,Nautilius polanco,19.431464,-99.196016,Seafood Restaurant,13338,3,NaN,20,"19.431417,-99.195774"
427,Mouk Polanco,19.431109,-99.195619,Restaurant,13065,2,NaN,24,"19.431417,-99.195774"
428,Pagano,19.431521,-99.195565,Restaurant,13065,NaN,NaN,24,"19.431417,-99.195774"
429,Operadora Hotelera de Personal,19.43115,-99.195677,Restaurant,13065,NaN,NaN,31,"19.431417,-99.195774"
430,Maki Maki,19.43123,-99.196032,Japanese Restaurant,13263,2,NaN,34,"19.431417,-99.195774"
431,Gala Polanco,19.431302,-99.195467,Bar,13003,NaN,NaN,34,"19.431417,-99.195774"
432,Leavimex,19.431546,-99.196132,Restaurant,13065,NaN,NaN,40,"19.431417,-99.195774"
433,La Cosa Nuestra,19.43123,-99.19611,Pizzeria,13064,NaN,NaN,40,"19.431417,-99.195774"
434,Envy,19.431467,-99.195382,Night Club,10032,NaN,NaN,41,"19.431417,-99.195774"
435,Pizza Hut,19.431686,-99.19548,Pizzeria,13064,NaN,NaN,42,"19.431417,-99.195774"
436,Garabatos,19.431464,-99.196016,Restaurant,13065,2,8.0,44,"19.431417,-99.195774"
437,Piaf,19.431233,-99.195476,Karaoke Bar,13015,2,NaN,45,"19.431417,-99.195774"
438,Catamundi,19.431082,-99.195686,Bistro,13027,3,8.9,47,"19.431417,-99.195774"
439,Cambelche,19.431586,-99.19619,Restaurant,13065,2,NaN,64,"19.431417,-99.195774"
440,Carajillo - Masaryk,19.431156,-99.182086,Cocktail Bar,13009,3,6.6,13,"19.431033,-99.18222"
441,Terraza Maxwell,19.431166,-99.182152,Restaurant,13065,2,NaN,16,"19.431033,-99.18222"
442,Japones,19.430936,-99.182084,Sushi Restaurant,13276,NaN,NaN,17,"19.431033,-99.18222"
443,Subway,19.430922,-99.181959,Deli,13039,1,5.9,18,"19.431033,-99.18222"
444,Rubaiyat,19.431141,-99.182057,Brazilian Restaurant,13079,3,8.1,23,"19.431033,-99.18222"
445,Terraza Baby Grill,19.431164,-99.18188,Restaurant,13065,2,NaN,38,"19.431033,-99.18222"
446,Casa del Corredor,19.430774,-99.181955,Restaurant,13065,2,NaN,39,"19.431033,-99.18222"
447,Masaryk 18 Tacos & Beer,19.43147,-99.182204,Taco Restaurant,13306,1,6.3,41,"19.431033,-99.18222"
448,Radio Trece,19.430978,-99.181825,Piano Bar,13017,NaN,NaN,41,"19.431033,-99.18222"
449,Nopal Inn,19.431265,-99.181914,Restaurant,13065,NaN,NaN,41,"19.431033,-99.18222"
450,T&B tacos y más,19.431428,-99.182229,Bistro,13027,NaN,NaN,43,"19.431033,-99.18222"
451,Plaza del Taco,19.431448,-99.18216,Restaurant,13065,2,NaN,46,"19.431033,-99.18222"
452,Tacos de Guisado Seneca,19.430321,-99.203325,Taco Restaurant,13306,1,NaN,17,"19.430515,-99.203331"
453,El Templo del Taco,19.430556,-99.202914,Mexican Restaurant,13303,1,NaN,48,"19.430515,-99.203331"
454,Lynis,19.429653,-99.193339,Mexican Restaurant,13303,NaN,NaN,20,"19.42977,-99.19349"
455,Mythos Estiatorio,19.429584,-99.193348,Gastropub,13057,NaN,NaN,25,"19.42977,-99.19349"
456,Los de Ensenada,19.429901,-99.193239,Restaurant,13065,2,NaN,30,"19.42977,-99.19349"
457,Margaret,19.427762,-99.191799,Restaurant,13065,2,NaN,28,"19.42783,-99.191539"
458,La Choza Encantada,19.428125,-99.191701,Fast Food Restaurant,13145,NaN,NaN,36,"19.42783,-99.191539"
459,Green salads,19.428138,-99.191725,Salad Restaurant,13332,1,NaN,39,"19.42783,-99.191539"
460,Cata Club Cava Palacio,19.427922,-99.191094,Wine Bar,13025,2,NaN,44,"19.42783,-99.191539"
461,Tacos Doña Tere,19.428243,-99.191611,Restaurant,13065,2,NaN,46,"19.42783,-99.191539"
462,Cantina numero 20,19.42684,-99.194023,Restaurant,13065,NaN,NaN,11,"19.426744,-99.193986"
463,Bosque Gourmet,19.426781,-99.193565,Restaurant,13065,2,NaN,44,"19.426744,-99.193986"
464,Los Canarios,19.426934,-99.194364,Mexican Restaurant,13303,1,NaN,44,"19.426744,-99.193986"
465,Palm Polanco,19.427128,-99.193756,American Restaurant,13068,2,7.9,49,"19.426744,-99.193986"
466,Chilla Kiles,19.434028,-99.180095,Mexican Restaurant,13303,1,NaN,17,"19.434147,-99.179835"
467,Quesadillas de Thiers,19.434125,-99.18002,Taco Restaurant,13306,1,NaN,23,"19.434147,-99.179835"
468,Mercadito,19.434298,-99.180028,Taco Restaurant,13306,1,NaN,26,"19.434147,-99.179835"
469,Hamburguesas y Hot Dogs,19.434125,-99.18002,Burger Joint,13031,1,NaN,29,"19.434147,-99.179835"
470,Tacos de carnitas,19.434453,-99.180167,Taco Restaurant,13306,1,NaN,34,"19.434147,-99.179835"
471,Mercado Kepler,19.434097,-99.180087,Mexican Restaurant,13303,1,NaN,37,"19.434147,-99.179835"
472,Cocteles y Fruta Tianguis de los Viernes,19.434418,-99.180086,Salad Restaurant,13332,1,NaN,39,"19.434147,-99.179835"
473,Tacos Deliciosos de Guisado,19.434496,-99.180089,Taco Restaurant,13306,1,NaN,47,"19.434147,-99.179835"
474,La Taquería de Mario,19.431971,-99.180775,Taco Restaurant,13306,1,NaN,36,"19.432276,-99.18064"
475,Tacos de Pollo el Emplumado,19.431858,-99.180705,Restaurant,13065,2,NaN,46,"19.432276,-99.18064"
476,Game Food by las Vegas,19.436055,-99.158101,Fast Food Restaurant,13145,1,NaN,28,"19.436274,-99.158425"
477,Antojitos CONS,19.436107,-99.1586,Mexican Restaurant,13303,1,7.4,30,"19.436274,-99.158425"
478,Antojitos Chabela,19.436107,-99.1586,Mexican Restaurant,13303,1,7.1,30,"19.436274,-99.158425"
479,Italianni's,19.43622,-99.158016,Italian Restaurant,13236,2,7.0,34,"19.436274,-99.158425"
480,Foodtruck el Buen Burgués,19.4361,-99.158157,Burger Joint,13031,1,NaN,34,"19.436274,-99.158425"
481,Dissendium,19.436701,-99.15837,Theme Restaurant,13354,NaN,NaN,47,"19.436274,-99.158425"
482,Restaurante Bar Marisquero,19.440845,-99.153102,Seafood Restaurant,13338,3,NaN,16,"19.440985,-99.152935"
483,Restaurant Bar Tijuana,19.440818,-99.153169,Mediterranean Restaurant,13302,2,8.4,17,"19.440985,-99.152935"
484,El Marisquero,19.440779,-99.152927,Seafood Restaurant,13338,3,NaN,22,"19.440985,-99.152935"
485,Restaurante Edison,19.440859,-99.153227,Restaurant,13065,2,NaN,26,"19.440985,-99.152935"
486,Fonda Oaxaqueña,19.440831,-99.153294,Mexican Restaurant,13303,1,NaN,33,"19.440985,-99.152935"
487,"Tíbet, Recuedos de la Patria Perdida",19.442111,-99.151922,History Museum,10030,NaN,NaN,29,"19.442467,-99.151658"
488,Tacos el Chalet,19.400863,-99.163534,Restaurant,13065,2,NaN,22,"19.40071,-99.163831"
489,La esquina saludable,19.400408,-99.164164,Salad Restaurant,13332,1,NaN,54,"19.40071,-99.163831"
490,La Flamita Ayuuk,19.401483,-99.15655,Taco Restaurant,13306,1,6.9,7,"19.4015,-99.156406"
491,Tortillas de Harina,19.401414,-99.156559,Filipino Restaurant,13146,2,NaN,7,"19.4015,-99.156406"
492,Tacos Tony,19.401695,-99.156439,Taco Restaurant,13306,1,NaN,21,"19.4015,-99.156406"
493,"Taqueria ""El Perro Feliz""",19.40151,-99.156483,Taco Restaurant,13306,1,NaN,23,"19.4015,-99.156406"
494,Oasis II,19.401837,-99.156307,Restaurant,13065,2,5.7,38,"19.4015,-99.156406"
495,Tacos de Canasta Kike,19.401871,-99.156261,Taco Restaurant,13306,1,NaN,43,"19.4015,-99.156406"
496,El Sazon de la Morena,19.39815,-99.15724,Mexican Restaurant,13303,1,6.3,30,"19.398532,-99.157308"
497,Quesadillas de la Doña,19.398545,-99.160988,Mexican Restaurant,13303,1,NaN,18,"19.398692,-99.161273"
498,Fondita Dakota,19.397643,-99.172886,Restaurant,13065,2,NaN,2,"19.397693,-99.172981"
499,La Mesa 22,19.397779,-99.173185,Restaurant,13065,2,NaN,12,"19.397693,-99.172981"
500,La Iguana,19.397643,-99.172886,Deli,13039,1,NaN,14,"19.397693,-99.172981"
501,Il Giornio,19.397354,-99.173114,Italian Restaurant,13236,2,NaN,24,"19.397693,-99.172981"
502,La Casa de los Güeros,19.39782,-99.173243,Whisky Bar,13024,3,NaN,25,"19.397693,-99.172981"
503,Tacos Puente de la Morena,19.398693,-99.183515,Taco Restaurant,13306,1,NaN,48,"19.398946,-99.183254"
504,KFC,19.397309,-99.16476,Fast Food Restaurant,13145,1,5.2,17,"19.397373,-99.164598"
505,Tacos Nice,19.397188,-99.164651,Taco Restaurant,13306,1,NaN,21,"19.397373,-99.164598"
506,La Casa del Buen Sazón,19.397583,-99.164724,Mexican Restaurant,13303,1,NaN,29,"19.397373,-99.164598"
507,El Libanes,19.397816,-99.16463,Eastern European Restaurant,13139,2,7.7,41,"19.397373,-99.164598"
508,Pizza Hut,19.397201,-99.164394,Pizzeria,13064,1,5.8,57,"19.397373,-99.164598"
509,Comedor AXA,19.397444,-99.165059,Mexican Restaurant,13303,1,NaN,70,"19.397373,-99.164598"
510,Triángulo de las Vergudas,19.396545,-99.160807,Deli,13039,1,NaN,7,"19.396513,-99.160924"
511,Súper Tacos de Guisado,19.396638,-99.161364,Taco Restaurant,13306,1,NaN,48,"19.396513,-99.160924"
512,El Castillo del Quijote,19.393647,-99.171572,Mexican Restaurant,13303,1,6.7,16,"19.393832,-99.171466"
513,Antojitos Lupita,19.393936,-99.171344,Taco Restaurant,13306,1,NaN,17,"19.393832,-99.171466"
514,Tabe-ya,19.393752,-99.171292,Cantonese Restaurant,13102,NaN,NaN,20,"19.393832,-99.171466"
515,Quesadillas Magdalena,19.393869,-99.171037,Mexican Restaurant,13303,1,NaN,21,"19.393832,-99.171466"
516,Restaurante Don Quijote,19.393679,-99.171344,Restaurant,13065,2,NaN,21,"19.393832,-99.171466"
517,Brazzero,19.393647,-99.171572,Restaurant,13065,2,NaN,30,"19.393832,-99.171466"
518,Tacos de Cortes los Explosiboss,19.393498,-99.171148,BBQ Joint,13026,2,8.2,39,"19.393832,-99.171466"
519,Gorditas el Collarin,19.393608,-99.171155,Belgian Restaurant,13077,NaN,NaN,40,"19.393832,-99.171466"
520,Moba's Café,19.393783,-99.171871,Café,13034,1,8.3,47,"19.393832,-99.171466"
521,"Taqueria ""Soto""",19.393811,-99.171804,Taco Restaurant,13306,1,NaN,47,"19.393832,-99.171466"
522,Esquina Gourmet,19.393498,-99.171148,Fast Food Restaurant,13145,1,NaN,47,"19.393832,-99.171466"
523,Salon Mixtecas,19.395066,-99.17316,Hotel Bar,13013,3,NaN,17,"19.394842,-99.173025"
524,Bambata Loreto,19.394997,-99.173169,Dive Bar,13010,1,6.9,18,"19.394842,-99.173025"
525,IHOP WTC,19.394626,-99.173281,Restaurant,13065,NaN,NaN,36,"19.394842,-99.173025"
526,Paparrilla,19.394786,-99.173401,Restaurant,13065,2,NaN,39,"19.394842,-99.173025"
527,Sitio Cafe,19.395023,-99.173419,Coffee Shop,13035,1,7.6,43,"19.394842,-99.173025"
528,P.F. Chang's China Bistro,19.394463,-99.173049,Chinese Restaurant,13099,2,8.5,49,"19.394842,-99.173025"
529,Puerto Getaria,19.393903,-99.175655,Spanish Restaurant,13345,2,8.5,3,"19.393699,-99.175664"
530,Don Tacho,19.393615,-99.175883,Mexican Restaurant,13303,1,NaN,11,"19.393699,-99.175664"
531,Tacos los Barriles,19.393585,-99.175719,Taco Restaurant,13306,1,NaN,13,"19.393699,-99.175664"
532,Fonda Don Tacho,19.393776,-99.175789,Mexican Restaurant,13303,1,NaN,15,"19.393699,-99.175664"
533,"Hamburguesas ""Hamburguesas""",19.393587,-99.17595,American Restaurant,13068,2,NaN,25,"19.393699,-99.175664"
534,"Tacos de Cochinita ""Los Barriles""",19.393546,-99.175892,Taco Restaurant,13306,1,NaN,36,"19.393699,-99.175664"
535,Salpav,19.393921,-99.175967,Restaurant,13065,NaN,NaN,40,"19.393699,-99.175664"
536,Le Gourmet,19.394,-99.175579,French Restaurant,13148,3,6.9,44,"19.393699,-99.175664"
537,La Terraza World Trade Center,19.393454,-99.175277,Restaurant,13065,2,5.3,48,"19.393699,-99.175664"
538,Corte y Norte,19.3936,-99.176075,BBQ Joint,13026,2,7.5,59,"19.393699,-99.175664"
539,Heineken Bar,19.39348,-99.175267,Bar,13003,2,6.7,61,"19.393699,-99.175664"
540,Don Tacho,19.393615,-99.175883,Mexican Restaurant,13303,1,NaN,6,"19.393701,-99.175834"
541,Fonda Don Tacho,19.393776,-99.175789,Mexican Restaurant,13303,1,NaN,9,"19.393701,-99.175834"
542,Tacos los Barriles,19.393585,-99.175719,Taco Restaurant,13306,1,NaN,17,"19.393701,-99.175834"
543,Puerto Getaria,19.393903,-99.175655,Spanish Restaurant,13345,2,8.5,18,"19.393701,-99.175834"
544,"Hamburguesas ""Hamburguesas""",19.393587,-99.17595,American Restaurant,13068,2,NaN,18,"19.393701,-99.175834"
545,Salpav,19.393921,-99.175967,Restaurant,13065,NaN,NaN,28,"19.393701,-99.175834"
546,"Tacos de Cochinita ""Los Barriles""",19.393546,-99.175892,Taco Restaurant,13306,1,NaN,33,"19.393701,-99.175834"
547,Corte y Norte,19.3936,-99.176075,BBQ Joint,13026,2,7.5,43,"19.393701,-99.175834"
548,Filadelfia 109,19.393928,-99.176222,Bar,13003,2,NaN,50,"19.393701,-99.175834"
549,Le Gourmet,19.394,-99.175579,French Restaurant,13148,3,6.9,58,"19.393701,-99.175834"
550,Taqueria la Guadalupana,19.392606,-99.183805,Taco Restaurant,13306,NaN,NaN,7,"19.392634,-99.183737"
551,Chapacuafish,19.392962,-99.183885,Seafood Restaurant,13338,3,7.6,21,"19.392634,-99.183737"
552,Panaderia San Pedro,19.392525,-99.183689,Deli,13039,1,NaN,24,"19.392634,-99.183737"
553,Queen Burgers,19.392429,-99.184013,Burger Joint,13031,1,6.3,36,"19.392634,-99.183737"
554,Pedatlon,19.392603,-99.183284,Speakeasy,13021,3,NaN,47,"19.392634,-99.183737"
555,Fisher‘S,19.391789,-99.173399,Restaurant,13065,2,NaN,33,"19.391472,-99.1736"
556,Sushi Roll,19.391487,-99.173502,Sushi Restaurant,13276,2,8.5,50,"19.391472,-99.1736"
557,Frida,19.391014,-99.159441,Bistro,13027,NaN,NaN,32,"19.391323,-99.15936"
558,Tacos Manolo narvarte poniente,19.391056,-99.159183,Restaurant,13065,NaN,NaN,34,"19.391323,-99.15936"
559,Tacos Manolo,19.391056,-99.159183,Pastry Shop,13047,NaN,NaN,34,"19.391323,-99.15936"
560,China Inn Napoles,19.388659,-99.177672,Chinese Restaurant,13099,1,5.8,18,"19.38885,-99.17772"
561,Jardin China,19.389139,-99.177609,Asian Restaurant,13072,2,NaN,20,"19.38885,-99.17772"
562,Giancarlo's Pizza,19.388836,-99.178028,Italian Restaurant,13236,2,7.0,21,"19.38885,-99.17772"
563,"Nonsolo, Nápoles",19.388659,-99.177672,Italian Restaurant,13236,NaN,NaN,21,"19.38885,-99.17772"
564,Big Daddy,19.389234,-99.17785,Hot Dog Joint,13058,1,NaN,27,"19.38885,-99.17772"
565,Satoshi - Napoles,19.388502,-99.177931,Japanese Restaurant,13263,2,6.8,32,"19.38885,-99.17772"
566,Moronas Cafe,19.388617,-99.17793,Coffee Shop,13035,1,7.2,40,"19.38885,-99.17772"
567,The Coffee Company,19.388589,-99.177997,Café,13034,NaN,NaN,41,"19.38885,-99.17772"
568,Terraza Antonella,19.389503,-99.182477,Gastropub,13057,3,NaN,21,"19.389358,-99.182606"
569,El Rincón de San Pedro,19.389487,-99.182566,Taco Restaurant,13306,1,6.7,23,"19.389358,-99.182606"
570,The Beer Company,19.389241,-99.182535,Beer Bar,13006,2,8.0,24,"19.389358,-99.182606"
571,Teotlalli,19.389471,-99.182391,Fast Food Restaurant,13145,NaN,NaN,25,"19.389358,-99.182606"
572,El gallito,19.386751,-99.173734,Taco Restaurant,13306,1,NaN,36,"19.387003,-99.173504"
573,NonNsolo,19.386925,-99.173085,Italian Restaurant,13236,2,NaN,57,"19.387003,-99.173504"
574,Miss Jochito,19.386581,-99.173447,Beer Bar,13006,NaN,8.1,65,"19.387003,-99.173504"
575,Tianguis de los miércoles acá por la chamba,19.384937,-99.166986,Mexican Restaurant,13303,1,NaN,11,"19.384849,-99.16704"
576,Comidonga,19.384527,-99.166813,Restaurant,13065,2,NaN,27,"19.384849,-99.16704"
577,Mixiotes Mercado San Borja,19.384943,-99.166625,Middle Eastern Restaurant,13309,2,NaN,44,"19.384849,-99.16704"
578,Comal de barro,19.425666,-99.204143,Mexican Restaurant,13303,1,7.3,28,"19.425905,-99.204236"
579,Verde-Deli,19.425864,-99.203908,Fast Food Restaurant,13145,1,6.6,28,"19.425905,-99.204236"
580,Hattori Sushi,19.425835,-99.204538,Sushi Restaurant,13276,2,NaN,32,"19.425905,-99.204236"
581,Daisuki Lomas,19.425697,-99.204309,Japanese Restaurant,13263,2,NaN,32,"19.425905,-99.204236"
582,Tacos Tulum,19.425642,-99.204065,Yucatecan Restaurant,13308,NaN,6.9,34,"19.425905,-99.204236"
583,Plaza el Punto,19.425571,-99.204133,Fast Food Restaurant,13145,1,6.7,38,"19.425905,-99.204236"
584,Be Grill,19.425795,-99.203917,Restaurant,13065,2,6.2,39,"19.425905,-99.204236"
585,Las Flautas,19.426906,-99.212831,Mexican Restaurant,13303,1,5.8,13,"19.42703,-99.212845"
586,"Las Flautas, Prado Norte",19.426908,-99.213155,Restaurant,13065,NaN,NaN,35,"19.42703,-99.212845"
587,La Bohême,19.426962,-99.213261,Diner,13049,1,5.7,44,"19.42703,-99.212845"
588,Tacos Volcan,19.42929,-99.207071,Taco Restaurant,13306,1,NaN,5,"19.429243,-99.207267"
589,Comida Japonesa,19.429112,-99.207031,Japanese Restaurant,13263,2,NaN,15,"19.429243,-99.207267"
590,Bottega Culinaria Lomas,19.42929,-99.207071,Deli,13039,1,7.8,17,"19.429243,-99.207267"
591,Chinese Dinning Room,19.42929,-99.207071,Chinese Restaurant,13099,1,NaN,24,"19.429243,-99.207267"
592,Los Bicitacos,19.429233,-99.207518,Mexican Restaurant,13303,1,NaN,26,"19.429243,-99.207267"
593,Sakesushibar,19.42929,-99.207573,Sushi Restaurant,13276,2,7.9,32,"19.429243,-99.207267"
594,Tacos el Suaderito,19.42899,-99.20746,Taco Restaurant,13306,1,NaN,34,"19.429243,-99.207267"
595,Pasaje Godinez,19.429112,-99.207031,Southern / Soul Food Restaurant,13344,1,NaN,40,"19.429243,-99.207267"
596,Le Rue Des Salmonelle,19.429084,-99.207098,Bistro,13027,NaN,NaN,44,"19.429243,-99.207267"
597,McDonald's,19.437226,-99.208113,Burger Joint,13031,3,NaN,30,"19.437014,-99.207932"
598,El pozo del gozo,19.436677,-99.20781,BBQ Joint,13026,2,NaN,39,"19.437014,-99.207932"
599,La Destileria,19.436702,-99.207813,Mexican Restaurant,13303,1,7.2,42,"19.437014,-99.207932"
600,El Buen Sazón,19.440053,-99.209593,Mexican Restaurant,13303,1,NaN,62,"19.440106,-99.210031"
601,La Virgencita,19.442617,-99.200261,Mexican Restaurant,13303,1,NaN,35,"19.442421,-99.199838"
602,Pizza & Pasta,19.442794,-99.199677,Italian Restaurant,13236,2,NaN,44,"19.442421,-99.199838"
603,Chuy's Batcave,19.440292,-99.186435,Speakeasy,13021,3,NaN,48,"19.440399,-99.186784"
604,Cafeteria,19.43792,-99.177115,Diner,13049,1,NaN,10,"19.437667,-99.17711"
605,Cafeteri Arestaurante Best,19.438002,-99.177231,Café,13034,1,6.1,13,"19.437667,-99.17711"
606,Mixiotes,19.437577,-99.177211,Taco Restaurant,13306,1,NaN,14,"19.437667,-99.17711"
607,Garnachas Bahia de Ballenas,19.437441,-99.176861,Mexican Restaurant,13303,1,NaN,19,"19.437667,-99.17711"
608,Birria Santa Barbara,19.437414,-99.176928,Fast Food Restaurant,13145,1,8.4,20,"19.437667,-99.17711"
609,Tacos el Corte No 7,19.437771,-99.176691,Taco Restaurant,13306,1,NaN,22,"19.437667,-99.17711"
610,Il Baffetto,19.437441,-99.176861,Italian Restaurant,13236,2,5.8,25,"19.437667,-99.17711"
611,Super Tortas,19.437866,-99.176932,Sandwich Restaurant,13334,1,NaN,25,"19.437667,-99.17711"
612,El Corte N°7,19.437866,-99.176932,Taco Restaurant,13306,1,NaN,25,"19.437667,-99.17711"
613,Cevicheve Sinaloense,19.437515,-99.17692,Restaurant,13065,2,NaN,26,"19.437667,-99.17711"
614,I Baffi,19.437441,-99.176861,Italian Restaurant,13236,2,6.3,27,"19.437667,-99.17711"
615,Las Buenas Kekas,19.437446,-99.17697,Burrito Restaurant,13305,1,NaN,28,"19.437667,-99.17711"
616,Tacos el Chino,19.437441,-99.176861,Mexican Restaurant,13303,1,NaN,29,"19.437667,-99.17711"
617,El Rincón de Boca,19.437771,-99.176691,Seafood Restaurant,13338,3,NaN,30,"19.437667,-99.17711"
618,Cocina Elenita,19.437771,-99.176691,Restaurant,13065,2,NaN,32,"19.437667,-99.17711"
619,Sushingao,19.437593,-99.1768,Sushi Restaurant,13276,2,NaN,33,"19.437667,-99.17711"
620,Tacos Tulum,19.437333,-99.177016,Taco Restaurant,13306,1,6.7,38,"19.437667,-99.17711"
621,"Pollos al carbón ""Forever Alon""",19.437771,-99.176691,Fried Chicken Joint,13055,1,NaN,38,"19.437667,-99.17711"
622,Los Burritos del Richard,19.437771,-99.176691,Burrito Restaurant,13305,1,NaN,43,"19.437667,-99.17711"
623,Cafe Punta del Cielo,19.437771,-99.176691,Coffee Shop,13035,NaN,NaN,45,"19.437667,-99.17711"
624,El Rincón de Moga,19.437703,-99.1767,Restaurant,13065,2,NaN,46,"19.437667,-99.17711"
625,La parrillada argentina,19.437771,-99.176691,Argentinian Restaurant,13070,2,NaN,46,"19.437667,-99.17711"
626,Fonda la Naranja,19.438031,-99.176847,Restaurant,13065,2,NaN,60,"19.437667,-99.17711"
627,"Tacos ""El Güero""",19.439229,-99.181105,Taco Restaurant,13306,1,8.3,4,"19.439249,-99.181065"
628,Los Muertacos,19.439328,-99.181239,Taco Restaurant,13306,1,NaN,15,"19.439249,-99.181065"
629,Gorditas Doña Irma,19.439287,-99.181181,Taco Restaurant,13306,1,NaN,20,"19.439249,-99.181065"
630,Don Capitan,19.438861,-99.180922,Mexican Restaurant,13303,1,6.7,45,"19.439249,-99.181065"
631,Micheladas Chalco,19.444721,-99.179406,Beer Garden,13007,1,NaN,41,"19.444433,-99.179664"
632,J&B The City Remix,19.422778,-99.150529,Whisky Bar,13024,3,NaN,33,"19.422392,-99.150358"
633,Estacion Indianilla,19.422628,-99.150422,Art Museum,10028,NaN,8.0,40,"19.422392,-99.150358"
634,Hotel Arena,19.422339,-99.15065,Hotel Bar,13013,3,NaN,42,"19.422392,-99.150358"
635,Elroffpool,19.392418,-99.1642,Whisky Bar,13024,3,NaN,33,"19.392195,-99.163987"
636,Le Petit Chef,19.418523,-99.17446,Theme Restaurant,13354,NaN,6.7,40,"19.418141,-99.174709"
637,Chinaloa,19.418483,-99.174402,Asian Restaurant,13072,2,7.1,41,"19.418141,-99.174709"
638,Barra Nipona,19.418476,-99.174448,Japanese Restaurant,13263,2,NaN,43,"19.418141,-99.174709"
639,Zoku By Hiroshi,19.418455,-99.174469,Sushi Restaurant,13276,NaN,NaN,43,"19.418141,-99.174709"
640,Mexsi Bocu,19.418455,-99.174469,Bistro,13027,NaN,NaN,43,"19.418141,-99.174709"
641,Zoku por Hiroshi,19.418483,-99.174402,Sushi Restaurant,13276,NaN,NaN,49,"19.418141,-99.174709"
642,La Taberna del Chanclas,19.407269,-99.171879,Tapas Restaurant,13347,3,8.3,7,"19.407233,-99.172131"
643,Hamburguesas HM,19.407062,-99.172223,Burger Joint,13031,1,7.5,8,"19.407233,-99.172131"
644,Café Emir,19.407228,-99.171821,Café,13034,1,6.9,21,"19.407233,-99.172131"
645,Antojitos Yola,19.407515,-99.17191,Mexican Restaurant,13303,1,7.2,22,"19.407233,-99.172131"
646,Balboa Pizzeria,19.407419,-99.172264,Pizzeria,13064,1,8.2,24,"19.407233,-99.172131"
647,Panga,19.407584,-99.171901,Seafood Restaurant,13338,3,NaN,28,"19.407233,-99.172131"
648,Gigolo Pizza,19.407255,-99.171754,Pizzeria,13064,1,NaN,32,"19.407233,-99.172131"
649,Los Originales Bernardinos,19.407497,-99.172324,Taco Restaurant,13306,1,NaN,35,"19.407233,-99.172131"
650,TOTÓ Condesa,19.407417,-99.171859,Gastropub,13057,3,NaN,35,"19.407233,-99.172131"
651,Las Memorables,19.406924,-99.172241,Burger Joint,13031,NaN,NaN,36,"19.407233,-99.172131"
652,Barra Baja,19.407431,-99.172428,Seafood Restaurant,13338,3,7.1,39,"19.407233,-99.172131"
653,El Congal del Cazador,19.406965,-99.172299,Lounge,13016,3,NaN,39,"19.407233,-99.172131"
654,Hamburguesas Memorables condesa,19.407556,-99.171968,Restaurant,13065,NaN,NaN,39,"19.407233,-99.172131"
655,Top Beer,19.407403,-99.172495,Bar,13003,2,NaN,42,"19.407233,-99.172131"
656,El Trapiche,19.407375,-99.172562,Restaurant,13065,NaN,NaN,47,"19.407233,-99.172131"
657,Quesadillas Doña Pelos,19.43949,-99.160304,Taco Restaurant,13306,1,NaN,28,"19.439347,-99.160074"
658,Maria Conesa,19.439335,-99.160205,Argentinian Restaurant,13070,2,5.8,38,"19.439347,-99.160074"
659,Tacos el Machete de Oro,19.425277,-99.175223,Taco Restaurant,13306,1,NaN,4,"19.425355,-99.17515"
660,Sonsacadero,19.425351,-99.175089,Taco Restaurant,13306,1,NaN,6,"19.425355,-99.17515"
661,Choripanes Cara de Perro,19.42548,-99.175151,Deli,13039,1,NaN,13,"19.425355,-99.17515"
662,La Cochinita de la Condesa,19.425346,-99.175214,Fast Food Restaurant,13145,1,7.9,14,"19.425355,-99.17515"
663,Caldos Ánimo,19.425127,-99.175116,Mexican Restaurant,13303,1,7.9,21,"19.425355,-99.17515"
664,Sushi Zen - Tamesis,19.425346,-99.175214,Japanese Restaurant,13263,2,6.6,23,"19.425355,-99.17515"
665,Day Light Salads,19.425318,-99.175281,Vegan and Vegetarian Restaurant,13377,2,6.4,23,"19.425355,-99.17515"
666,Taqueria el Champion,19.425589,-99.175156,Mexican Restaurant,13303,1,NaN,26,"19.425355,-99.17515"
667,Hamburguesas Memorables cuauhtemoc,19.425331,-99.175406,Burger Joint,13031,NaN,NaN,26,"19.425355,-99.17515"
668,The Best Tacos de Guisado In Town,19.425127,-99.175116,Taco Restaurant,13306,1,NaN,33,"19.425355,-99.17515"
669,Green Spot,19.425618,-99.175362,Salad Restaurant,13332,1,NaN,36,"19.425355,-99.17515"
670,"Antojitos ""La Michoacana""",19.425278,-99.175508,Mexican Restaurant,13303,1,NaN,38,"19.425355,-99.17515"
671,Taqueria el Champion,19.425716,-99.175102,Taco Restaurant,13306,NaN,NaN,40,"19.425355,-99.17515"
672,"Bistrot 750. Vinos, Baguettes y Tapas.",19.430868,-99.16701,Spanish Restaurant,13345,2,NaN,10,"19.430963,-99.166986"
673,Rio Diecisiete,19.431151,-99.166978,Restaurant,13065,2,6.2,17,"19.430963,-99.166986"
674,Sushi Roma.Ito,19.430883,-99.166832,Sushi Restaurant,13276,2,NaN,18,"19.430963,-99.166986"
675,Tacos Dorados,19.430768,-99.166965,Taco Restaurant,13306,1,NaN,26,"19.430963,-99.166986"
676,La Raclette Coffee,19.431235,-99.166777,Coffee Shop,13035,NaN,NaN,37,"19.430963,-99.166986"
677,Chokis cuauhtemoc,19.432339,-99.161755,Restaurant,13065,NaN,NaN,14,"19.432223,-99.161686"
678,Cantina Argentina,19.432242,-99.161831,Argentinian Restaurant,13070,2,NaN,21,"19.432223,-99.161686"
679,Taqueria la Michoacana,19.432309,-99.161359,Taco Restaurant,13306,1,NaN,35,"19.432223,-99.161686"
680,Los Pibes del Grill,19.431968,-99.161867,Argentinian Restaurant,13070,2,7.9,40,"19.432223,-99.161686"
681,Esquina Berenjena,19.431968,-99.161867,Salad Restaurant,13332,1,7.3,40,"19.432223,-99.161686"
682,Nutri Ensaladas,19.432325,-99.16208,Salad Restaurant,13332,1,NaN,42,"19.432223,-99.161686"
683,Los Chocko´s,19.432337,-99.162072,Coffee Shop,13035,1,6.0,63,"19.432223,-99.161686"
684,Hamburguesita de Carrito,19.424506,-99.163288,Burger Joint,13031,1,NaN,13,"19.424558,-99.163518"
685,Hamburguesas para Bajar la Peda,19.424551,-99.163683,Burger Joint,13031,1,NaN,17,"19.424558,-99.163518"
686,Zona de comida zoologico de chapultepec,19.425288,-99.18523,Fast Food Restaurant,13145,1,NaN,56,"19.424858,-99.185181"
687,La Papa del Valle,19.375304,-99.163715,Mediterranean Restaurant,13302,2,NaN,18,"19.375397,-99.163778"
688,Quesadillas de Leidyng,19.375236,-99.163724,Mexican Restaurant,13303,1,NaN,28,"19.375397,-99.163778"
689,Burger King,19.375605,-99.163929,Burger Joint,13031,1,6.0,33,"19.375397,-99.163778"
690,The House Of Vice,19.375743,-99.163594,Gay Bar,13011,2,NaN,35,"19.375397,-99.163778"
691,Gorditas y Tlacoyos Lady,19.37514,-99.1638,Taco Restaurant,13306,1,NaN,37,"19.375397,-99.163778"
692,D2A3 Caídas,19.382103,-99.181057,Taco Restaurant,13306,1,NaN,0,"19.382109,-99.181056"
693,Carbon 4 Bikers,19.382123,-99.181041,Sports Bar,13022,1,NaN,2,"19.382109,-99.181056"
694,Taberna el Colorín,19.382037,-99.181057,Seafood Restaurant,13338,3,NaN,8,"19.382109,-99.181056"
695,Harrison Tacos y Chelas,19.381885,-99.181128,Taco Restaurant,13306,1,NaN,26,"19.382109,-99.181056"
696,Tortas Puercas Rodin,19.381792,-99.180974,Deli,13039,1,NaN,36,"19.382109,-99.181056"
697,El Viejo Roodin,19.381737,-99.18112,Mexican Restaurant,13303,1,NaN,41,"19.382109,-99.181056"
698,Grado 23,19.381698,-99.18108,Seafood Restaurant,13338,3,NaN,45,"19.382109,-99.181056"
699,Tortas Pepe,19.381205,-99.186753,Mexican Restaurant,13303,1,NaN,27,"19.381123,-99.18667"
700,El Saguancito,19.380765,-99.186874,Mexican Restaurant,13303,1,NaN,48,"19.381123,-99.18667"
701,Tortas a un lado de Wal Mart,19.367982,-99.164801,Mexican Restaurant,13303,1,NaN,23,"19.368107,-99.164376"
702,Alitas Wal Mart,19.368372,-99.164378,Wings Joint,13388,1,NaN,29,"19.368107,-99.164376"
703,Hamburguesas Oliva,19.36788,-99.164558,Burger Joint,13031,1,NaN,31,"19.368107,-99.164376"
704,Restaurante Gastron las Delicias C,19.375434,-99.177819,Restaurant,13065,NaN,NaN,6,"19.375495,-99.177819"
705,Deli Imperio,19.375749,-99.177841,Salad Restaurant,13332,1,6.4,17,"19.375495,-99.177819"
706,Tamalitos y Tortas de Chilaquiles,19.37546,-99.178069,Sandwich Restaurant,13334,1,NaN,28,"19.375495,-99.177819"
707,El Depósito,19.375734,-99.178033,Brewery,13029,3,7.2,31,"19.375495,-99.177819"
708,Bukenkha,19.375473,-99.178194,Asian Restaurant,13072,2,NaN,36,"19.375495,-99.177819"
709,Lucca Pizza,19.375914,-99.177756,Pizzeria,13064,1,6.9,38,"19.375495,-99.177819"
710,La Chopería,19.375227,-99.178163,Beer Garden,13007,1,5.9,40,"19.375495,-99.177819"
711,Los Bolillotes,19.375108,-99.17773,Taco Restaurant,13306,1,NaN,43,"19.375495,-99.177819"
712,Tacos de Pollo Dorados y de Guisado,19.375775,-99.178091,Fried Chicken Joint,13055,1,NaN,43,"19.375495,-99.177819"
713,Sukiya,19.375775,-99.178091,Japanese Restaurant,13263,2,6.9,47,"19.375495,-99.177819"
714,Arepas & Bolillotes,19.375092,-99.177641,Arepa Restaurant,13069,1,NaN,48,"19.375495,-99.177819"
715,El Pobre Juan,19.375582,-99.17827,Taco Restaurant,13306,1,5.4,48,"19.375495,-99.177819"
716,Carnitas Premium,19.375243,-99.177654,Taco Restaurant,13306,1,NaN,50,"19.375495,-99.177819"
717,La Comandancia Live,19.375858,-99.17789,Beer Bar,13006,NaN,NaN,52,"19.375495,-99.177819"
718,La Gran Torta,19.385673,-99.183635,Mexican Restaurant,13303,1,NaN,17,"19.385494,-99.183744"
719,El Vergel,19.385451,-99.184171,Mexican Restaurant,13303,1,NaN,37,"19.385494,-99.183744"
720,La Doña de San Antonio,19.385304,-99.184149,Mexican Restaurant,13303,1,NaN,47,"19.385494,-99.183744"
721,Tacos Israel,19.372424,-99.164409,Taco Restaurant,13306,1,5.8,11,"19.372469,-99.164538"
722,Pibil Mex,19.372874,-99.16473,Mexican Restaurant,13303,1,NaN,39,"19.372469,-99.164538"
723,Distribuidora Mueblera Milenio,19.372397,-99.164159,Restaurant,13065,NaN,NaN,40,"19.372469,-99.164538"
724,"Amo Ato Pop, Coffee",19.372861,-99.164605,Restaurant,13065,NaN,NaN,44,"19.372469,-99.164538"
725,Sushi Roll,19.367111,-99.170842,Sushi Restaurant,13276,2,8.4,30,"19.36715,-99.17055"
726,Mejicaleria,19.366765,-99.170405,Bar,13003,2,NaN,35,"19.36715,-99.17055"
727,Emiklub,19.367428,-99.170786,Lounge,13016,3,NaN,39,"19.36715,-99.17055"
728,Billar Amores,19.367454,-99.170774,Sake Bar,13020,2,NaN,41,"19.36715,-99.17055"
729,El Puertito,19.369405,-99.179186,Seafood Restaurant,13338,3,NaN,27,"19.36952,-99.179421"
730,Las Quesadillas,19.369778,-99.17952,Taco Restaurant,13306,1,NaN,30,"19.36952,-99.179421"
731,"Tacos ""El Paisa""",19.369941,-99.179482,Taco Restaurant,13306,1,NaN,47,"19.36952,-99.179421"
732,Tortas Pepe,19.441101,-99.19577,Hot Dog Joint,13058,1,NaN,6,"19.441123,-99.195857"
733,Mundo Shisha,19.441245,-99.19603,Hookah Bar,13012,1,NaN,22,"19.441123,-99.195857"
734,Eclectic Bar,19.426971,-99.168441,Bar,13003,2,NaN,30,"19.4267528,-99.16861944"
735,Taquitos de Birria,19.427156,-99.168642,Taco Restaurant,13306,1,NaN,30,"19.4267528,-99.16861944"
736,Mallorca,19.426783,-99.169089,Restaurant,13065,2,7.9,49,"19.4267528,-99.16861944"
737,Mas natural,19.41297,-99.17169,Restaurant,13065,2,NaN,2,"19.41299,-99.171675"
738,Azul Condesa,19.412793,-99.171536,Mexican Restaurant,13303,3,8.5,10,"19.41299,-99.171675"
739,Puesto de hotchos,19.413107,-99.171875,Hot Dog Joint,13058,1,NaN,12,"19.41299,-99.171675"
740,AM Local,19.413148,-99.171933,Night Club,10032,3,7.3,14,"19.41299,-99.171675"
741,La Xampa,19.413107,-99.171875,Wine Bar,13025,3,8.6,15,"19.41299,-99.171675"
742,Hell's Kitchen la Condesa DF,19.412888,-99.171777,Pizzeria,13064,NaN,NaN,15,"19.41299,-99.171675"
743,Xampaneria,19.412931,-99.171518,Wine Bar,13025,NaN,NaN,17,"19.41299,-99.171675"
744,LOFT Drinkery & Food Station,19.413107,-99.171875,Bar,13003,2,7.0,19,"19.41299,-99.171675"
745,Savú Condesa,19.412942,-99.17196,Lounge,13016,3,6.3,23,"19.41299,-99.171675"
746,The Corner Rock Bar,19.413079,-99.171942,Bar,13003,2,NaN,24,"19.41299,-99.171675"
747,Jochos y hamburguesas,19.413148,-99.171933,Burger Joint,13031,1,NaN,28,"19.41299,-99.171675"
748,Loft,19.413079,-99.171942,Bar,13003,NaN,NaN,29,"19.41299,-99.171675"
749,Articbar,19.412737,-99.171987,Night Club,10032,3,6.1,32,"19.41299,-99.171675"
750,La Nevera,19.412846,-99.172036,Cocktail Bar,13009,3,NaN,37,"19.41299,-99.171675"
751,Hochos Nuevo León,19.413189,-99.171991,Hot Dog Joint,13058,1,NaN,40,"19.41299,-99.171675"
752,Mint,19.412709,-99.171978,Gay Bar,13011,2,NaN,44,"19.41299,-99.171675"
753,Caradura Stage Bar,19.41256,-99.17163,Bar,13003,NaN,NaN,48,"19.41299,-99.171675"
754,El Plaza Condesa,19.413161,-99.172058,Concert Hall,10037,NaN,8.4,54,"19.41299,-99.171675"
755,Xampanierya Condesa,19.41323,-99.172049,Bar,13003,2,NaN,58,"19.41299,-99.171675"
756,La Nuyorquina,19.41323,-99.172049,Cocktail Bar,13009,3,NaN,59,"19.41299,-99.171675"
757,Gino's Pronto,19.427302,-99.166405,Diner,13049,1,NaN,25,"19.427338,-99.16672"
758,Bistrot Mosaico Reforma,19.42733,-99.166338,French Restaurant,13148,3,7.5,28,"19.427338,-99.16672"
759,Urban Spices,19.427109,-99.166874,Bar,13003,NaN,NaN,30,"19.427338,-99.16672"
760,Restaurante City Express,19.427318,-99.166387,Restaurant,13065,2,NaN,35,"19.427338,-99.16672"
761,Touch Karaoke,19.427302,-99.166405,Karaoke Bar,13015,2,NaN,44,"19.427338,-99.16672"
762,Tierra Garat,19.42977,-99.163105,Coffee Shop,13035,1,8.8,30,"19.429453,-99.16283"
763,Las Fuentes,19.429784,-99.169501,Restaurant,13065,NaN,NaN,5,"19.429804,-99.169451"
764,Mo + f,19.429593,-99.169336,Asian Restaurant,13072,2,8.3,9,"19.429804,-99.169451"
765,Bengala,19.429658,-99.169362,Chinese Restaurant,13099,1,NaN,18,"19.429804,-99.169451"
766,Sango Teppanyaki,19.429712,-99.16929,Japanese Restaurant,13263,2,NaN,19,"19.429804,-99.169451"
767,Mauricio's,19.429552,-99.169278,Bar,13003,2,NaN,20,"19.429804,-99.169451"
768,Cici's Roofgarden,19.430007,-99.169404,Beer Garden,13007,1,NaN,23,"19.429804,-99.169451"
769,Le Tachinomi Desu,19.429565,-99.169403,Sake Bar,13020,2,7.7,25,"19.429804,-99.169451"
770,Restaurante Fuji,19.42962,-99.169269,Sushi Restaurant,13276,2,NaN,27,"19.429804,-99.169451"
771,Restaurante Satsuki,19.429565,-99.169403,Restaurant,13065,NaN,NaN,27,"19.429804,-99.169451"
772,Cici's Bar,19.430099,-99.169523,Beer Garden,13007,1,NaN,29,"19.429804,-99.169451"
773,El Rincon de los Borrachos,19.429579,-99.169211,Cocktail Bar,13009,3,NaN,31,"19.429804,-99.169451"
774,TMB,19.429523,-99.169515,Speakeasy,13021,3,NaN,31,"19.429804,-99.169451"
775,Enomoto Coffee,19.429565,-99.169403,Coffee Shop,13035,1,7.2,32,"19.429804,-99.169451"
776,Hiyoko Yakitori Ya,19.42955,-99.169595,Restaurant,13065,NaN,NaN,32,"19.429804,-99.169451"
777,Lazy Susan,19.429555,-99.169628,Chinese Restaurant,13099,1,NaN,33,"19.429804,-99.169451"
778,Hiyoko,19.429603,-99.169665,Japanese Restaurant,13263,3,8.0,34,"19.429804,-99.169451"
779,Ramen Hankki,19.429486,-99.169714,Ramen Restaurant,13272,NaN,8.2,44,"19.429804,-99.169451"
780,Apgujeong Ramen,19.42951,-99.16976,Korean Restaurant,13289,2,NaN,45,"19.429804,-99.169451"
781,The Ramen House Rio Tiber,19.430236,-99.169505,Ramen Restaurant,13272,NaN,NaN,48,"19.429804,-99.169451"
782,Freedom Zona Rosa,19.430128,-99.169139,Restaurant,13065,NaN,NaN,48,"19.429804,-99.169451"
783,Mon Dieu raclettería,19.429482,-99.169604,Comfort Food Restaurant,13134,NaN,8.0,55,"19.429804,-99.169451"
784,The Fantasma Rooftop,19.43837,-99.16563,Tiki Bar,13023,NaN,NaN,35,"19.438197,-99.165918"
785,Tacos Doña Chelo,19.438449,-99.165642,Taco Restaurant,13306,1,NaN,39,"19.438197,-99.165918"
786,Cantina el Golfo de Leon,19.438172,-99.166312,Bar,13003,2,7.2,41,"19.438197,-99.165918"
787,Barbacoa Velazquez d Leon y Pimentel,19.438519,-99.165628,Mexican Restaurant,13303,1,NaN,46,"19.438197,-99.165918"
788,El Golfo de Leon,19.438035,-99.16633,Restaurant,13065,NaN,NaN,46,"19.438197,-99.165918"
789,Grizzly Burgers & Beer,19.43719,-99.161943,Burger Joint,13031,1,8.0,8,"19.437118,-99.161862"
790,Pinches Tacos,19.437017,-99.16188,Taco Restaurant,13306,1,NaN,11,"19.437118,-99.161862"
791,Taquería la Tapatía,19.437001,-99.161845,Taco Restaurant,13306,1,5.9,13,"19.437118,-99.161862"
792,Soluciones Gourmet,19.437204,-99.161751,Café,13034,NaN,NaN,15,"19.437118,-99.161862"
793,"Tacos ""Pancho""",19.437123,-99.161635,Taco Restaurant,13306,1,NaN,22,"19.437118,-99.161862"
794,Cecina & Queso,19.436906,-99.161849,Mexican Restaurant,13303,1,NaN,23,"19.437118,-99.161862"
795,Tacos el Betin,19.437123,-99.161635,Taco Restaurant,13306,1,8.7,24,"19.437118,-99.161862"
796,Savi's Coffee Lounge,19.437425,-99.161532,Diner,13049,1,7.9,37,"19.437118,-99.161862"
797,Loo Laa Exxxquisita Cochinita,19.437519,-99.161721,Mexican Restaurant,13303,1,6.3,46,"19.437118,-99.161862"
798,Restaurante Bar & Cafe la Catedral,19.43494,-99.133769,Beer Garden,13007,1,5.4,4,"19.434962,-99.133729"
799,Xoloitzcuintle,19.435224,-99.133758,Hotel Bar,13013,3,7.0,10,"19.434962,-99.133729"
800,Galeria de la Secretaria de Hacienda y Crédito Público,19.435006,-99.133632,Museum,10027,NaN,7.4,11,"19.434962,-99.133729"
801,Museo de la SHCP,19.434841,-99.133428,Art Museum,10028,NaN,NaN,24,"19.434962,-99.133729"
802,Mexico Viejo,19.434989,-99.134169,Mexican Restaurant,13303,1,5.6,29,"19.434962,-99.133729"
803,La Vikina,19.434773,-99.133437,Bar,13003,2,NaN,31,"19.434962,-99.133729"
804,Terraza Barpack,19.435347,-99.133615,Bar,13003,2,NaN,35,"19.434962,-99.133729"
805,La Cata Restaurant Terraza - Bar,19.43521,-99.133633,Beer Garden,13007,1,8.7,38,"19.434962,-99.133729"
806,"Los Bisquets Obregón, Tacuba",19.434937,-99.133352,Restaurant,13065,NaN,NaN,39,"19.434962,-99.133729"
807,Las Cuñadas,19.370444,-99.181258,Restaurant,13065,2,NaN,38,"19.370615,-99.181606"
808,Rubono's Headquarters,19.384396,-99.171833,Cocktail Bar,13009,3,NaN,9,"19.384447,-99.172039"
809,Embajada Venezolana,19.384396,-99.171833,Lounge,13016,3,NaN,11,"19.384447,-99.172039"
810,Burger King,19.38463,-99.172339,Burger Joint,13031,1,6.6,37,"19.384447,-99.172039"
811,Las Alitas Legarreta,19.36981,-99.172367,Wings Joint,13388,1,NaN,21,"19.369823,-99.172164"
812,Los Varelianos,19.369869,-99.171835,Taco Restaurant,13306,1,NaN,35,"19.369823,-99.172164"
813,Lindo Michoacan villa de cortes,19.369554,-99.171813,Taco Restaurant,13306,NaN,NaN,47,"19.369823,-99.172164"
814,Restaurante Parroquia,19.36995,-99.172268,Mexican Restaurant,13303,1,6.3,59,"19.369823,-99.172164"
815,Hamburguesas vikingos,19.369856,-99.17171,Burger Joint,13031,1,5.5,69,"19.369823,-99.172164"
816,Quesadillas y Gorditas Doña Mary,19.370259,-99.173557,Mexican Restaurant,13303,1,NaN,30,"19.370221,-99.173862"
817,Barbacoa parroquia,19.370246,-99.173432,Mexican Restaurant,13303,1,7.1,46,"19.370221,-99.173862"
818,"Tacos Fonda Argentina, Parroquía",19.370246,-99.173432,Argentinian Restaurant,13070,4,NaN,72,"19.370221,-99.173862"
819,Puerto Nachero,19.363227,-99.158586,Pub,13018,1,7.1,26,"19.363049,-99.158436"
820,Domino's Pizza,19.362667,-99.158216,Pizzeria,13064,NaN,NaN,48,"19.363049,-99.158436"
821,Comedor Tentempié,19.380304,-99.164327,Deli,13039,1,NaN,21,"19.380087,-99.16427"
822,Antojitos Doña Tere,19.380139,-99.164538,Taco Restaurant,13306,1,NaN,28,"19.380087,-99.16427"
823,Paella del Valle,19.380261,-99.164586,Paella Restaurant,13346,3,NaN,37,"19.380087,-99.16427"
824,La Escondida,19.361478,-99.162505,Gastropub,13057,3,NaN,28,"19.361245,-99.16239"
825,"La Destileria, Polanco",19.438417,-99.207589,Caribbean Restaurant,13097,NaN,NaN,22,"19.438616,-99.207577"
826,Subway,19.438391,-99.207339,Deli,13039,NaN,NaN,35,"19.438616,-99.207577"
827,Meleé,19.438391,-99.207339,Italian Restaurant,13236,NaN,NaN,35,"19.438616,-99.207577"
828,Tacos del Bancomer,19.439047,-99.207634,Taco Restaurant,13306,1,NaN,41,"19.438616,-99.207577"
829,Tacos de Birria,19.438862,-99.20795,Taco Restaurant,13306,1,NaN,47,"19.438616,-99.207577"
830,Restaurante Cedrón,19.416738,-99.175327,Mediterranean Restaurant,13302,2,8.1,12,"19.41689,-99.17562"
831,La Payuca,19.41682,-99.175443,Argentinian Restaurant,13070,NaN,NaN,20,"19.41689,-99.17562"
832,Maikai Poke,19.416518,-99.175546,Hawaiian Restaurant,13192,NaN,7.2,21,"19.41689,-99.17562"
833,Museo Caracol,19.417037,-99.175858,History Museum,10030,NaN,NaN,25,"19.41689,-99.17562"
834,HDP Hamburguesa del Poeta,19.417139,-99.175389,Burger Joint,13031,1,NaN,32,"19.41689,-99.17562"
835,Bulla,19.417168,-99.175473,Beer Garden,13007,1,8.8,34,"19.41689,-99.17562"
836,Postales de Café,19.416518,-99.175546,Coffee Shop,13035,1,8.3,37,"19.41689,-99.17562"
837,La Mina y el Pibe,19.417169,-99.175382,Argentinian Restaurant,13070,2,NaN,39,"19.41689,-99.17562"
838,Mazatlan,19.416518,-99.175546,Seafood Restaurant,13338,NaN,NaN,42,"19.41689,-99.17562"
839,La Mexa. Mexican Mixology,19.436892,-99.13972,Bar,13003,2,NaN,42,"19.436522,-99.139811"
840,El Cardenal Tacuba y Marconi,19.436163,-99.139959,Restaurant,13065,2,NaN,42,"19.436522,-99.139811"
841,Escribanos,19.436146,-99.140051,Bistro,13027,NaN,NaN,48,"19.436522,-99.139811"
842,Arte en Construcción,19.436516,-99.139416,Art Museum,10028,NaN,NaN,55,"19.436522,-99.139811"
843,Museo Nacional de Arte (Museo Nacional de Arte (MUNAL)),19.436255,-99.139577,Art Museum,10028,1,9.5,60,"19.436522,-99.139811"
844,McDonald's,19.431578,-99.158099,Burger Joint,13031,1,6.1,47,"19.43163,-99.158547"
845,El Cardenal,19.433723,-99.135349,Mexican Restaurant,13303,3,9.2,12,"19.433757,-99.135331"
846,Comedor Familiar,19.433724,-99.135032,Diner,13049,1,NaN,15,"19.433757,-99.135331"
847,Pizza Hut,19.433724,-99.135032,Pizzeria,13064,1,5.5,19,"19.433757,-99.135331"
848,Ichiban House Sushi Sucursal la Palma,19.433724,-99.135032,Sushi Restaurant,13276,2,NaN,28,"19.433757,-99.135331"
849,El Patriarca Taqueria,19.433687,-99.135069,Taco Restaurant,13306,1,NaN,28,"19.433757,-99.135331"
850,El Espolon centro de la ciudad de mexico area 1,19.433724,-99.135032,Restaurant,13065,NaN,NaN,31,"19.433757,-99.135331"
851,Pata Negra Centro Histórico,19.434024,-99.135562,Lounge,13016,NaN,NaN,38,"19.433757,-99.135331"
852,Pata Negra,19.43411,-99.135446,Bar,13003,2,NaN,41,"19.433757,-99.135331"
853,El Cardenal,19.433478,-99.135001,Mexican Restaurant,13303,NaN,NaN,46,"19.433757,-99.135331"
854,Pata Negra,19.434135,-99.135572,Bar,13003,2,7.9,49,"19.433757,-99.135331"
855,Jugos Canada,19.434037,-99.135687,Sandwich Restaurant,13334,1,6.8,51,"19.433757,-99.135331"
856,Los Vegetarianos,19.433516,-99.135692,Mexican Restaurant,13303,2,6.6,54,"19.433757,-99.135331"
857,Marisqueria las Palmas,19.433462,-99.135509,Seafood Restaurant,13338,3,5.7,54,"19.433757,-99.135331"
858,Mercaderes,19.433958,-99.134938,Restaurant,13065,3,8.9,58,"19.433757,-99.135331"
859,Los Chilangos Tacos Tortas & Quesadillas,19.434037,-99.135687,Fast Food Restaurant,13145,1,5.9,58,"19.433757,-99.135331"
860,Las Tortulias de Madero,19.433516,-99.135692,Botanero,13304,NaN,6.2,59,"19.433757,-99.135331"
861,Bertico Cafe,19.433478,-99.135001,Coffee Shop,13035,1,5.9,245,"19.433757,-99.135331"
862,Asadero Condesa,19.433723,-99.135349,Steakhouse,13383,4,NaN,4714,"19.433757,-99.135331"
863,Burgerfi Condesa,19.413101,-99.166872,Burger Joint,13031,1,7.0,2,"19.412982,-99.166936"
864,Tacos los Parados,19.413074,-99.166939,Taco Restaurant,13306,1,NaN,8,"19.412982,-99.166936"
865,Sonora 205,19.413101,-99.166872,Burger Joint,13031,1,NaN,12,"19.412982,-99.166936"
866,Day Light Salads,19.413074,-99.166939,Vegan and Vegetarian Restaurant,13377,1,6.8,16,"19.412982,-99.166936"
867,Tortas del Sixtie's,19.413074,-99.166939,Mexican Restaurant,13303,1,NaN,16,"19.412982,-99.166936"
868,El Fogoncito,19.412636,-99.166743,Taco Restaurant,13306,1,6.5,21,"19.412982,-99.166936"
869,Tortas al Fuego,19.412703,-99.167051,Fast Food Restaurant,13145,1,8.3,22,"19.412982,-99.166936"
870,Burgerfi,19.412703,-99.167051,Burger Joint,13031,1,NaN,25,"19.412982,-99.166936"
871,SurSur Cocina Tradicional,19.412649,-99.166868,Restaurant,13065,2,NaN,25,"19.412982,-99.166936"
872,Healthy Food,19.412935,-99.167198,Salad Restaurant,13332,1,NaN,27,"19.412982,-99.166936"
873,Comida Tradicional Española,19.412635,-99.16706,Restaurant,13065,2,NaN,29,"19.412982,-99.166936"
874,Las Hamburguesas del Fer,19.412636,-99.166743,Burger Joint,13031,1,NaN,30,"19.412982,-99.166936"
875,Ensaladas,19.413006,-99.166631,Salad Restaurant,13332,1,NaN,32,"19.412982,-99.166936"
876,Sixtie's,19.413006,-99.166631,Fast Food Restaurant,13145,NaN,NaN,32,"19.412982,-99.166936"
877,Sanchez Garcia Maria Elena,19.412703,-99.167051,Restaurant,13065,NaN,NaN,33,"19.412982,-99.166936"
878,Garage,19.41267,-99.16685,Pizzeria,13064,1,NaN,35,"19.412982,-99.166936"
879,Alaska Killer,19.412636,-99.166743,Bar,13003,2,NaN,35,"19.412982,-99.166936"
880,Ponte Trucha,19.412636,-99.166743,Seafood Restaurant,13338,3,7.4,40,"19.412982,-99.166936"
881,Mariscos Sonora,19.412622,-99.16685,Seafood Restaurant,13338,3,NaN,41,"19.412982,-99.166936"
882,Marquiño's,19.412662,-99.166993,Speakeasy,13021,3,NaN,42,"19.412982,-99.166936"
883,Sixties Burger,19.412993,-99.166506,Bar,13003,2,6.7,58,"19.412982,-99.166936"
884,Club 60's Sixties Bar & Rock,19.412993,-99.166506,Bar,13003,2,7.5,59,"19.412982,-99.166936"
885,Tortas y Tacos de Plaza Insurgentes,19.412993,-99.166506,Taco Restaurant,13306,1,NaN,66,"19.412982,-99.166936"
886,Subway,19.412993,-99.166506,Deli,13039,1,5.7,978,"19.412982,-99.166936"
887,Los Tacos Parados,19.413074,-99.166939,Beer Garden,13007,1,NaN,1605622,"19.412982,-99.166936"
888,Soma Bar,19.41689,-99.165552,Lounge,13016,3,NaN,5,"19.417102,-99.165607"
889,La Nueva Condesa,19.41689,-99.165552,Bar,13003,2,5.3,6,"19.417102,-99.165607"
890,BP Black,19.41689,-99.165552,Cocktail Bar,13009,3,NaN,7,"19.417102,-99.165607"
891,La Caverna B & F,19.41689,-99.165552,Bar,13003,2,NaN,12,"19.417102,-99.165607"
892,Roling,19.417355,-99.165681,Dive Bar,13010,1,NaN,16,"19.417102,-99.165607"
893,La Caverna B&F,19.416849,-99.165494,Karaoke Bar,13015,2,NaN,17,"19.417102,-99.165607"
894,Puesto de Fruta,19.416945,-99.165418,Salad Restaurant,13332,1,NaN,18,"19.417102,-99.165607"
895,Pomelo Smoothies,19.416862,-99.165619,Vegan and Vegetarian Restaurant,13377,2,NaN,22,"19.417102,-99.165607"
896,Tlecan,19.416919,-99.165486,Bar,13003,2,8.6,23,"19.417102,-99.165607"
897,Cocina Medellin,19.416903,-99.165677,Restaurant,13065,2,NaN,24,"19.417102,-99.165607"
898,Ramen Bar V Ramen,19.41689,-99.165552,Ramen Restaurant,13272,NaN,6.6,26,"19.417102,-99.165607"
899,La Facultad Bar Roma,19.416945,-99.165418,Cocktail Bar,13009,NaN,NaN,26,"19.417102,-99.165607"
900,Local 1,19.416925,-99.16543,Wine Bar,13025,2,7.7,27,"19.417102,-99.165607"
901,La Baja Tacos,19.416793,-99.165628,Taco Restaurant,13306,1,7.1,27,"19.417102,-99.165607"
902,Mexicanito Social Club,19.416834,-99.165686,Mexican Restaurant,13303,1,NaN,30,"19.417102,-99.165607"
903,Puesto de masa azul,19.417424,-99.165672,Mexican Restaurant,13303,1,NaN,30,"19.417102,-99.165607"
904,G & G Comida Urbana,19.416792,-99.165945,Restaurant,13065,2,7.1,31,"19.417102,-99.165607"
905,Tacos el Mexicanito,19.416792,-99.165945,Taco Restaurant,13306,1,7.1,32,"19.417102,-99.165607"
906,Tacos Valladolid y Oaxaca,19.417396,-99.165739,Taco Restaurant,13306,1,NaN,33,"19.417102,-99.165607"
907,El Takoketo,19.416792,-99.165945,Taco Restaurant,13306,1,7.0,35,"19.417102,-99.165607"
908,La Pizzeria Argentina,19.41696,-99.165226,Argentinian Restaurant,13070,2,NaN,44,"19.417102,-99.165607"
909,Parrilladas Bariloche,19.41696,-99.165226,BBQ Joint,13026,2,NaN,46,"19.417102,-99.165607"
910,El Mexicanito,19.417011,-99.166043,Mexican Restaurant,13303,NaN,NaN,46,"19.417102,-99.165607"
911,Go go biskkit!,19.416836,-99.165369,Bar,13003,2,NaN,47,"19.417102,-99.165607"
912,La Meztiza,19.416891,-99.165235,Pub,13018,1,NaN,55,"19.417102,-99.165607"
913,La Vida en Verde,19.420646,-99.168544,Coffee Shop,13035,1,7.6,24,"19.420627,-99.16821"
914,Desayunando Con la Tía,19.420687,-99.168602,Gastropub,13057,3,NaN,25,"19.420627,-99.16821"
915,Adela's Bar,19.420659,-99.168669,Speakeasy,13021,3,NaN,31,"19.420627,-99.16821"
916,Regina's Winehouse,19.420714,-99.168535,Wine Bar,13025,2,NaN,32,"19.420627,-99.16821"
917,Fundacion Carlos Slim,19.420319,-99.16808,Museum,10027,NaN,NaN,50,"19.420627,-99.16821"
918,La Bomba Condesa,19.408572,-99.169961,Taco Restaurant,13306,1,NaN,13,"19.4086886,-99.169938"
919,Pizzeliers,19.408744,-99.169722,Pizzeria,13064,1,NaN,27,"19.4086886,-99.169938"
920,Bonjour,19.408429,-99.1697,Fast Food Restaurant,13145,NaN,NaN,34,"19.4086886,-99.169938"
921,Mr. Tofu,19.407789,-99.168898,Deli,13039,1,NaN,12,"19.407927,-99.168734"
922,Patio Condesa,19.407748,-99.168698,Lounge,13016,3,NaN,20,"19.407927,-99.168734"
923,In Salad,19.407706,-99.169098,Salad Restaurant,13332,1,NaN,35,"19.407927,-99.168734"
924,La Artesa,19.407285,-99.174347,Bakery,13002,1,7.5,12,"19.407479,-99.174403"
925,"Peltre Lonchería, Condesa",19.407819,-99.174467,Café,13034,2,7.8,18,"19.407479,-99.174403"
926,Lonchería Cristy,19.407352,-99.174655,Mexican Restaurant,13303,1,NaN,22,"19.407479,-99.174403"
927,Monumento Alfonso Reyes,19.407832,-99.174592,Gastropub,13057,3,NaN,25,"19.407479,-99.174403"
928,La Chingada Condesa Cantina,19.407352,-99.174655,Bar,13003,NaN,NaN,29,"19.407479,-99.174403"
929,Peltre,19.407778,-99.174409,Restaurant,13065,NaN,NaN,33,"19.407479,-99.174403"
930,Taqueria Kaliman,19.407832,-99.174592,Taco Restaurant,13306,1,NaN,39,"19.407479,-99.174403"
931,Mosto,19.407752,-99.174159,Cocktail Bar,13009,3,NaN,43,"19.407479,-99.174403"
932,Volador Café,19.411369,-99.171216,Café,13034,1,7.6,19,"19.411361,-99.171271"
933,Esquites,19.411438,-99.171207,Mexican Restaurant,13303,1,8.7,20,"19.411361,-99.171271"
934,El Güero,19.411712,-99.171171,Taco Restaurant,13306,1,6.9,29,"19.411361,-99.171271"
935,Taquería Hola,19.411422,-99.171715,Taco Restaurant,13306,NaN,NaN,47,"19.411361,-99.171271"
936,La Vid Argentina,19.406678,-99.17221,Argentinian Restaurant,13070,2,7.7,19,"19.40655,-99.172275"
937,Las Chalupitas,19.406293,-99.172514,Mexican Restaurant,13303,2,8.4,21,"19.40655,-99.172275"
938,La Vid Argentina Condesa,19.406746,-99.172201,Argentinian Restaurant,13070,NaN,NaN,23,"19.40655,-99.172275"
939,El Califa,19.406293,-99.172514,Taco Restaurant,13306,2,8.7,38,"19.40655,-99.172275"
940,Las Memorables,19.406924,-99.172241,Burger Joint,13031,NaN,NaN,41,"19.40655,-99.172275"
941,El Congal del Cazador,19.406965,-99.172299,Lounge,13016,3,NaN,56,"19.40655,-99.172275"
942,Tortas la Hidalguense,19.436703,-99.133944,Sandwich Restaurant,13334,1,NaN,16,"19.436931,-99.133952"
943,Roof Top Bar,19.437043,-99.134058,Bar,13003,2,NaN,16,"19.436931,-99.133952"
944,"Antojitos ""DOÑA MARY""",19.436621,-99.133828,Restaurant,13065,2,NaN,45,"19.436931,-99.133952"
945,Cantina la Valenciana,19.436663,-99.133569,Restaurant,13065,NaN,NaN,49,"19.436931,-99.133952"
946,Conos Guiot,19.419492,-99.176021,Fried Chicken Joint,13055,1,NaN,23,"19.41966,-99.17588"
947,Don Uruguayo,19.419706,-99.175565,BBQ Joint,13026,2,6.9,33,"19.41966,-99.17588"
948,Parrilla México Uruguay,19.419615,-99.175584,Latin American Restaurant,13297,2,NaN,36,"19.41966,-99.17588"
949,Blend Poptails headquarters,19.41945,-99.175669,Speakeasy,13021,3,NaN,45,"19.41966,-99.17588"
950,Brooklyn Urban Food & Drink,19.365164,-99.162593,Restaurant,13065,2,NaN,48,"19.364912,-99.162968"
951,La Casita del Cafe,19.365072,-99.162903,Café,13034,1,7.2,232,"19.364912,-99.162968"
952,El Hambre Lobo,19.438163,-99.152059,Mexican Restaurant,13303,1,NaN,7,"19.438228,-99.152269"
953,Burguer & Beer,19.438394,-99.152599,Fast Food Restaurant,13145,NaN,NaN,39,"19.438228,-99.152269"
954,Museo Nacional de San Carlos,19.438225,-99.151914,Museum,10027,1,8.9,43,"19.438228,-99.152269"
955,Burritas del Che Jaime,19.438602,-99.152374,Mexican Restaurant,13303,1,NaN,43,"19.438228,-99.152269"
956,Toks,19.433472,-99.154953,Restaurant,13065,2,NaN,20,"19.433431,-99.155142"
957,Carl's Jr.,19.433133,-99.155443,Fast Food Restaurant,13145,1,8.1,31,"19.433431,-99.155142"
958,"Panda Express, Reforma",19.433669,-99.154929,Chinese Restaurant,13099,1,6.8,35,"19.433431,-99.155142"
959,Panda Express Reforma 77,19.433176,-99.154867,Asian Restaurant,13072,NaN,NaN,40,"19.433431,-99.155142"
960,Toks,19.433278,-99.154704,Restaurant,13065,2,NaN,48,"19.433431,-99.155142"
961,Carl's Junior,19.433133,-99.155443,Burger Joint,13031,1,NaN,60,"19.433431,-99.155142"
962,La Diabla,19.436973,-99.153788,Wings Joint,13388,1,NaN,24,"19.436764,-99.153865"
963,La Diabla Snacks & Beers,19.436985,-99.153786,Beer Bar,13006,NaN,NaN,25,"19.436764,-99.153865"
964,Zesta Punta,19.436992,-99.15348,Restaurant,13065,2,7.6,29,"19.436764,-99.153865"
965,Lucky - Café Restaurant,19.4401,-99.156196,Chinese Restaurant,13099,1,5.8,13,"19.44021597,-99.1561678"
966,El Pancho,19.44015,-99.15591,Burger Joint,13031,1,NaN,28,"19.44021597,-99.1561678"
967,Restaurant y Café Jumbo,19.440062,-99.156407,Chinese Restaurant,13099,1,NaN,30,"19.44021597,-99.1561678"
968,Vips,19.439831,-99.156339,Restaurant,13065,1,5.5,39,"19.44021597,-99.1561678"
969,Cecina de Yecapixtla,19.440188,-99.156576,BBQ Joint,13026,2,NaN,42,"19.44021597,-99.1561678"
970,Toks,19.440299,-99.155834,Restaurant,13065,2,7.1,46,"19.44021597,-99.1561678"
971,El Califa de Leon,19.440502,-99.156441,Taco Restaurant,13306,1,7.2,489,"19.44021597,-99.1561678"
972,Tacos de Birria y Cabeza,19.429693,-99.145569,Taco Restaurant,13306,1,NaN,32,"19.429947,-99.14591"
973,Barbacoa Vianey,19.429926,-99.145475,Taco Restaurant,13306,1,6.6,54,"19.429947,-99.14591"
974,El Tortugon,19.430087,-99.14634,Mexican Restaurant,13303,1,NaN,60,"19.429947,-99.14591"
975,El Cuadrilátero,19.430336,-99.145738,Café,13034,1,5.5,72,"19.429947,-99.14591"
976,Cortes callejeros,19.434881,-99.150273,Taco Restaurant,13306,1,NaN,14,"19.434944,-99.150295"
977,Desayunos Reforma,19.435066,-99.1501,Comfort Food Restaurant,13134,NaN,NaN,24,"19.434944,-99.150295"
978,Partybus,19.435167,-99.150678,Dive Bar,13010,1,NaN,41,"19.434944,-99.150295"
979,Pizzeria los Arcos,19.434826,-99.150749,Pizzeria,13064,1,NaN,49,"19.434944,-99.150295"
980,Le Petit Resto,19.385367,-99.178419,French Restaurant,13148,3,8.3,16,"19.38542,-99.17823"
981,Oveja Negra,19.385521,-99.178406,Restaurant,13065,2,NaN,21,"19.38542,-99.17823"
982,Los Sentados,19.385487,-99.178033,Bar,13003,2,NaN,21,"19.38542,-99.17823"
983,La Takocina,19.376138,-99.185832,Restaurant,13065,2,NaN,25,"19.375865,-99.185573"
984,La Reina de las Carnitas,19.376031,-99.185826,Taco Restaurant,13306,1,NaN,32,"19.375865,-99.185573"
985,Tacos los Cuñados,19.376092,-99.185966,Taco Restaurant,13306,1,NaN,48,"19.375865,-99.185573"
986,Tacos al Pastor,19.377867,-99.169902,Taco Restaurant,13306,1,NaN,29,"19.377966,-99.170272"
987,Paraguas Bistro,19.37766,-99.170245,Taco Restaurant,13306,1,NaN,34,"19.377966,-99.170272"
988,Homeslice Pizza,19.377615,-99.170097,Pizzeria,13064,1,5.4,43,"19.377966,-99.170272"
989,Tortas Jorge,19.378179,-99.170557,Sandwich Restaurant,13334,1,NaN,50,"19.377966,-99.170272"
990,Comida Corrida y Quecas de Tlaco,19.378179,-99.170557,Mexican Restaurant,13303,1,NaN,51,"19.377966,-99.170272"
991,La Taberna de Mau,19.396265,-99.183835,Cocktail Bar,13009,3,NaN,28,"19.396359,-99.183579"
992,Look House,19.396337,-99.183254,Speakeasy,13021,3,NaN,31,"19.396359,-99.183579"
993,TacoSin Talento,19.396459,-99.183239,Taco Restaurant,13306,1,NaN,37,"19.396359,-99.183579"
994,Las Corcholatas,19.376996,-99.160788,Seafood Restaurant,13338,3,NaN,31,"19.376918,-99.16108"
995,Urban Spices - del Valle,19.376894,-99.160658,Asian Restaurant,13072,2,7.0,32,"19.376918,-99.16108"
996,"La Cervecería de Barrio, Universidad",19.377304,-99.160921,Bar,13003,2,7.7,36,"19.376918,-99.16108"
997,El Califa,19.376894,-99.160658,Taco Restaurant,13306,1,8.2,37,"19.376918,-99.16108"
998,Aznusi Cucine,19.376825,-99.160667,Restaurant,13065,NaN,NaN,44,"19.376918,-99.16108"
999,Tacotitlan,19.364534,-99.175953,Mexican Restaurant,13303,1,NaN,31,"19.364916,-99.175985"
1000,Mac Roman,19.364626,-99.175974,Taco Restaurant,13306,1,NaN,32,"19.364916,-99.175985"
1001,The BeerBox del Valle,19.365278,-99.175793,Beer Bar,13006,NaN,NaN,44,"19.364916,-99.175985"
1002,La Artesa,19.365274,-99.176046,Bakery,13002,1,7.9,46,"19.364916,-99.175985"
1003,Olive Salads,19.36192,-99.172243,Deli,13039,1,6.9,34,"19.362037,-99.172683"
1004,Cochinita Power,19.44126,-99.16198,Mexican Restaurant,13303,1,8.3,26,"19.441114,-99.161636"
1005,Mis Dos Tierras,19.441284,-99.161819,Venezuelan Restaurant,13378,NaN,NaN,26,"19.441114,-99.161636"
1006,Quesadillas de Chalmita,19.441233,-99.162047,Mexican Restaurant,13303,1,7.9,32,"19.441114,-99.161636"
1007,Sincronizadas y Hamburguesas,19.441358,-99.161587,Burger Joint,13031,1,NaN,37,"19.441114,-99.161636"
1008,Chino Moreno Bistro Asiático,19.441439,-99.161767,Noodle Restaurant,13315,1,NaN,38,"19.441114,-99.161636"
1009,Quesadillas de la esquina,19.441257,-99.162018,Taco Restaurant,13306,1,NaN,43,"19.441114,-99.161636"
1010,La Morena de Acapulco,19.44126,-99.16198,Mexican Restaurant,13303,1,NaN,45,"19.441114,-99.161636"
1011,Comida Casera Ale,19.41013,-99.188163,Comfort Food Restaurant,13134,NaN,NaN,3,"19.410036,-99.187978"
1012,Cocina Económica Galli,19.410132,-99.187846,Diner,13049,1,6.7,8,"19.410036,-99.187978"
1013,Dharma Momos,19.409857,-99.187882,Restaurant,13065,2,NaN,10,"19.410036,-99.187978"
1014,Wafle Gourmet,19.410202,-99.18795,BBQ Joint,13026,2,NaN,18,"19.410036,-99.187978"
1015,Tortilleria San Miguel,19.410255,-99.187703,Mexican Restaurant,13303,1,NaN,37,"19.410036,-99.187978"
1016,Barbacoa de Rafael Rebollar,19.409611,-99.187851,Taco Restaurant,13306,1,6.9,52,"19.410036,-99.187978"
1017,Nicho Bears & Bar,19.424081,-99.166511,Gay Bar,13011,2,7.6,2,"19.424187,-99.166497"
1018,Quesadillas de Sandy,19.424081,-99.166511,Molecular Gastronomy Restaurant,13311,4,NaN,12,"19.424187,-99.166497"
1019,Xuni,19.42417,-99.166622,Bar,13003,2,NaN,13,"19.424187,-99.166497"
1020,Banqueta del Nicho,19.424409,-99.166658,Beer Garden,13007,1,NaN,14,"19.424187,-99.166497"
1021,Nul Bom,19.424409,-99.166658,Korean Restaurant,13289,2,7.1,17,"19.424187,-99.166497"
1022,Lui Super,19.424257,-99.166657,Korean Restaurant,13289,2,NaN,18,"19.424187,-99.166497"
1023,Restaurante Rumano,19.424094,-99.166636,Romanian Restaurant,13328,NaN,NaN,18,"19.424187,-99.166497"
1024,Quesadillas de la Güera,19.424094,-99.166636,Mexican Restaurant,13303,1,NaN,21,"19.424187,-99.166497"
1025,Melodika Canta Bar,19.424177,-99.166435,Karaoke Bar,13015,2,5.7,22,"19.424187,-99.166497"
1026,Jazz y Kar Jugos y Licuados,19.424409,-99.166658,Sandwich Restaurant,13334,1,NaN,23,"19.424187,-99.166497"
1027,Go Hyang Zib,19.424409,-99.166658,Korean Restaurant,13289,2,7.5,25,"19.424187,-99.166497"
1028,O Mart,19.424283,-99.166749,Deli,13039,1,NaN,28,"19.424187,-99.166497"
1029,Passion,19.424177,-99.166435,Dive Bar,13010,1,NaN,28,"19.424187,-99.166497"
1030,Cocoraoke,19.424462,-99.166516,Karaoke Bar,13015,2,NaN,30,"19.424187,-99.166497"
1031,Kaprichosa,19.424461,-99.16654,Bar,13003,2,NaN,30,"19.424187,-99.166497"
1032,Ensaladas,19.423893,-99.16656,Salad Restaurant,13332,1,NaN,33,"19.424187,-99.166497"
1033,Min Sok Chon,19.424437,-99.166591,Korean Restaurant,13289,2,8.1,38,"19.424187,-99.166497"
1034,Restaurante Coreano,19.424437,-99.166591,Asian Restaurant,13072,2,7.1,39,"19.424187,-99.166497"
1035,Enchiladas,19.423985,-99.166587,Mexican Restaurant,13303,1,NaN,41,"19.424187,-99.166497"
1036,Los Arcos,19.424561,-99.166448,Mexican Restaurant,13303,NaN,NaN,41,"19.424187,-99.166497"
1037,Mercado,19.423985,-99.166587,Mexican Restaurant,13303,1,NaN,42,"19.424187,-99.166497"
1038,Babiana,19.423959,-99.166337,Gay Bar,13011,2,4.9,43,"19.424187,-99.166497"
1039,El Perro Sediento,19.424601,-99.166601,Bar,13003,2,NaN,47,"19.424187,-99.166497"
1040,Phở King,19.424519,-99.166707,Vietnamese Restaurant,13379,2,6.7,52,"19.424187,-99.166497"
1041,Ponte Vecchio,19.423849,-99.166288,Restaurant,13065,NaN,NaN,52,"19.424187,-99.166497"
1042,Kyung Hwa Choi,19.424326,-99.166859,Korean Restaurant,13289,2,NaN,52,"19.424187,-99.166497"
1043,Beatricita,19.423943,-99.166845,Taco Restaurant,13306,1,8.1,53,"19.424187,-99.166497"
